%  GPST       e-baseline(m)  n-baseline(m)  u-baseline(m)   Q  ns   sde(m)   sdn(m)   sdu(m)  sden(m)  sdnu(m)  sdue(m) age(s)  ratio  e-vel(m)  n-vel(m)  u-vel(m)
1874 214139        27.4690         1.7167        -0.1010   2   9   0.6733   0.6861   1.4225  -0.1652   0.3699   0.5388   0.00    1.1        -0.0380        -0.0466         0.0275
1874 214139        26.8550         1.8933         0.3714   2   9   0.4810   0.4910   1.0131  -0.1197   0.2593   0.3860   0.00    1.0         0.0040        -0.0196         0.0660
1874 214139        26.6368         1.8328         0.3159   2   9   0.3941   0.4026   0.8293  -0.0985   0.2111   0.3166   0.00    1.0         0.0000         0.0000         0.0000
1874 214140        26.5428         1.6586         0.1067   2   9   0.3419   0.3494   0.7190  -0.0857   0.1825   0.2748   0.00    1.2         0.0000         0.0000         0.0000
1874 214140        26.7960         1.4633        -0.1280   2   9   0.3061   0.3129   0.6436  -0.0769   0.1631   0.2461   0.20    1.2        -0.0921         0.1188        -0.3309
1874 214140        26.9793         1.3665        -0.2341   2   9   0.2796   0.2859   0.5878  -0.0703   0.1487   0.2248   0.40    1.5        -0.0567         0.0548        -0.2696
1874 214140        26.9650         1.3471        -0.2685   2   9   0.2591   0.2649   0.5446  -0.0639   0.1371   0.2076   0.00    1.1        -0.0735         0.0086        -0.4395
1874 214140        27.9170         1.6086         1.4183   2  10   0.2341   0.2475   0.4974  -0.0662   0.1236   0.1760   0.00    1.3         0.0578        -0.0933         0.1169
1874 214141        28.4529         1.7641         2.2899   2  10   0.2155   0.2332   0.4617  -0.0660   0.1133   0.1537   0.00    1.3        -0.0437         0.0489        -0.0491
1874 214141        28.8975         1.8817         2.8489   2  10   0.2009   0.2212   0.4329  -0.0649   0.1052   0.1368   0.00    1.4         0.0258        -0.0436         0.0185
1874 214141        29.1029         1.9357         3.1884   2  10   0.1889   0.2109   0.4092  -0.0635   0.0986   0.1237   0.00    1.6        -0.0965         0.0411        -0.2490
1874 214141        29.1998         1.9519         3.3866   2  10   0.1789   0.2019   0.3891  -0.0619   0.0931   0.1131   0.00    1.7         0.1789        -0.2306         1.0008
1874 214141        29.2730         1.9722         3.5795   2  10   0.1704   0.1939   0.3717  -0.0604   0.0885   0.1044   0.00    1.6         0.0228         0.0132         0.0649
1874 214142        29.2131         1.9519         3.3926   2  10   0.1630   0.1869   0.3565  -0.0589   0.0845   0.0971   0.00    1.7        -0.1539         0.0586        -0.4658
1874 214142        29.2365         1.9191         3.2916   2  10   0.1565   0.1806   0.3431  -0.0574   0.0809   0.0909   0.00    1.7        -0.0676         0.0349        -0.2921
1874 214142        29.2059         1.8398         3.1065   2  10   0.1508   0.1748   0.3311  -0.0560   0.0778   0.0856   0.00    1.6         0.0284        -0.0706         0.1289
1874 214142        29.0050         1.7380         2.6893   2  10   0.1456   0.1696   0.3203  -0.0547   0.0751   0.0809   0.00    1.4         0.0059         0.0376         0.1946
1874 214142        28.8002         1.6209         2.1864   2  10   0.1409   0.1648   0.3105  -0.0535   0.0725   0.0768   0.00    1.0         0.0427        -0.0281        -0.1129
1874 214143        28.6872         1.6288         1.9887   2  10   0.1367   0.1604   0.3016  -0.0523   0.0703   0.0732   0.00    1.2         0.0199         0.0538         0.0727
1874 214143        28.5888         1.6307         1.7162   2  10   0.1328   0.1564   0.2933  -0.0512   0.0682   0.0700   0.00    1.4        -0.0775        -0.0637        -0.2116
1874 214143        28.4693         1.6523         1.4115   2  10   0.1293   0.1526   0.2858  -0.0502   0.0663   0.0671   0.20    1.7        -0.0103         0.0804         0.1133
1874 214143        28.4763         1.6563         1.2559   2   9   0.1270   0.1491   0.2802  -0.0487   0.0652   0.0679   0.20    1.7         0.0594         0.0363         0.0887
1874 214143        28.4714         1.6341         1.1270   2   9   0.1248   0.1459   0.2748  -0.0473   0.0641   0.0683   0.00    1.6        -0.0668         0.0020        -0.0427
1874 214144        28.3840         1.5847         0.9349   2  10   0.1219   0.1428   0.2685  -0.0465   0.0626   0.0657   0.00    1.7        -0.0807         0.0291         0.0188
1874 214144        28.2935         1.5185         0.7201   2  10   0.1191   0.1399   0.2627  -0.0458   0.0611   0.0633   0.00    1.7         0.0623        -0.0041        -0.0074
1874 214144        28.2419         1.5086         0.5601   2  10   0.1165   0.1372   0.2572  -0.0450   0.0597   0.0611   0.20    1.6        -0.0601         0.0425        -0.0866
1874 214144        28.2083         1.4534         0.4560   2  10   0.1141   0.1347   0.2520  -0.0443   0.0584   0.0591   0.20    1.5         0.0081         0.0685         0.1118
1874 214144        28.1830         1.4225         0.3754   2  10   0.1118   0.1322   0.2472  -0.0436   0.0572   0.0573   0.00    1.4        -0.1547        -0.0561        -0.1701
1874 214145        28.1856         1.4051         0.3240   2  10   0.1096   0.1300   0.2426  -0.0430   0.0560   0.0555   0.20    1.3        -0.0224         0.0476        -0.1373
1874 214145        28.2234         1.3836         0.3508   2  10   0.1076   0.1278   0.2382  -0.0424   0.0549   0.0540   0.00    1.3         0.0621         0.0132        -0.0302
1874 214145        28.2988         1.3893         0.4474   2  10   0.1057   0.1257   0.2341  -0.0418   0.0539   0.0525   0.00    1.2        -0.0552         0.0598        -0.1350
1874 214145        28.3955         1.3902         0.5222   2  10   0.1039   0.1237   0.2302  -0.0412   0.0529   0.0511   0.20    1.2         0.0185        -0.1689        -0.0495
1874 214145        28.5240         1.3979         0.7171   2  10   0.1022   0.1218   0.2265  -0.0406   0.0520   0.0498   0.20    1.1         0.0812        -0.1018         0.2320
1874 214146        28.6272         1.3886         0.8236   2  10   0.1005   0.1200   0.2230  -0.0401   0.0511   0.0486   0.20    1.0         0.0694        -0.0295         0.2000
1874 214146        28.6661         1.3761         0.8688   2  10   0.0990   0.1183   0.2196  -0.0396   0.0503   0.0475   0.20    1.0        -0.0629        -0.0103        -0.0033
1874 214146        28.7245         1.3879         0.9674   2  10   0.0975   0.1167   0.2164  -0.0391   0.0495   0.0464   0.00    1.1         0.0043        -0.0708         0.2312
1874 214146        28.7201         1.3972         0.9285   2  10   0.0960   0.1151   0.2133  -0.0386   0.0487   0.0454   0.00    1.1         0.0686        -0.0877        -0.0008
1874 214146        28.7050         1.4011         0.8951   2   9   0.0952   0.1136   0.2109  -0.0379   0.0483   0.0461   0.20    1.1         0.0453         0.0145        -0.2782
1874 214147        28.7052         1.4210         0.8655   2   9   0.0942   0.1121   0.2086  -0.0373   0.0479   0.0465   0.20    1.1         0.0525        -0.0781         0.4108
1874 214147        28.7247         1.4458         0.8322   2   9   0.0933   0.1107   0.2063  -0.0367   0.0474   0.0469   0.20    1.1        -0.0926         0.0240        -0.2103
1874 214147        28.7341         1.4478         0.7703   2   9   0.0924   0.1094   0.2042  -0.0362   0.0470   0.0472   0.20    1.0         0.0319         0.0197         0.2033
1874 214147        28.7321         1.4500         0.7344   2   9   0.0916   0.1081   0.2020  -0.0356   0.0465   0.0475   0.20    1.0         0.0234         0.0282         0.0403
1874 214147        28.7327         1.4440         0.6822   2   9   0.0908   0.1068   0.2000  -0.0351   0.0461   0.0477   0.00    1.0        -0.0472         0.0312        -0.1696
1874 214148        28.7246         1.4393         0.6412   2   9   0.0900   0.1056   0.1980  -0.0346   0.0457   0.0479   0.00    1.0         0.0886        -0.0601         0.6266
1874 214148        28.7008         1.4137         0.5707   2   9   0.0892   0.1044   0.1961  -0.0341   0.0453   0.0481   0.00    1.0        -0.0648        -0.0007        -0.0315
1874 214148        28.7176         1.3984         0.5393   2  10   0.0881   0.1033   0.1937  -0.0338   0.0447   0.0471   0.00    1.1        -0.0082         0.0032        -0.0762
1874 214148        28.7281         1.3832         0.4950   2  10   0.0870   0.1022   0.1914  -0.0335   0.0441   0.0461   0.00    1.1        -0.0274         0.0366        -0.0952
1874 214148        28.7369         1.3730         0.5419   2   9   0.0863   0.1011   0.1897  -0.0331   0.0438   0.0464   0.00    1.1        -0.2039         0.0506        -0.4519
1874 214149        28.7342         1.3758         0.6008   2   9   0.0856   0.1001   0.1880  -0.0326   0.0434   0.0465   0.00    1.1         0.0001        -0.0493         0.0548
1874 214149        28.7383         1.3822         0.6678   2  10   0.0847   0.0991   0.1860  -0.0324   0.0429   0.0457   0.00    1.1         0.0379         0.1074         0.1518
1874 214149        28.7435         1.3537         0.6970   2  10   0.0837   0.0981   0.1839  -0.0321   0.0424   0.0447   0.00    1.0        -0.0488        -0.0849         0.2628
1874 214149        28.7396         1.3525         0.8044   2  10   0.0828   0.0972   0.1819  -0.0319   0.0419   0.0439   0.00    1.0        -0.0624        -0.0745        -0.5259
1874 214149        28.7396         1.3310         0.8756   2  10   0.0819   0.0963   0.1801  -0.0316   0.0414   0.0431   0.00    1.1         0.0261        -0.0352         0.2248
1874 214150        28.7612         1.2869         0.9344   2  10   0.0810   0.0954   0.1782  -0.0314   0.0409   0.0424   0.00    1.2         0.0120        -0.1500         0.1051
1874 214150        28.7983         1.2639         1.1135   2  10   0.0802   0.0945   0.1765  -0.0312   0.0405   0.0417   0.00    1.3        -0.2280         0.1678        -0.7981
1874 214150        28.8296         1.2445         1.2786   2  10   0.0794   0.0936   0.1748  -0.0309   0.0400   0.0410   0.00    1.3        -0.1580         0.1649        -0.6798
1874 214150        28.8561         1.2157         1.3426   2  10   0.0786   0.0928   0.1731  -0.0307   0.0396   0.0404   0.00    1.3        -0.0929         0.1521        -0.6173
1874 214150        28.8755         1.1795         1.4259   2  10   0.0779   0.0920   0.1715  -0.0305   0.0392   0.0398   0.00    1.3        -0.2040         0.2701        -0.3512
1874 214151        28.8947         1.1405         1.4851   2  10   0.0771   0.0912   0.1699  -0.0302   0.0388   0.0392   0.00    1.3        -0.1885         0.1506        -0.7687
1874 214151        28.9250         1.0996         1.6431   2  10   0.0764   0.0905   0.1684  -0.0300   0.0384   0.0386   0.00    1.4        -0.1566         0.1787        -0.7491
1874 214151        28.9571         1.0466         1.7651   2  10   0.0757   0.0897   0.1669  -0.0298   0.0380   0.0381   0.00    1.4        -0.1966         0.1567        -0.6736
1874 214151        28.9975         1.0008         1.8518   2  10   0.0750   0.0890   0.1654  -0.0296   0.0376   0.0375   0.00    1.4        -0.1053         0.1878        -0.6101
1874 214151        29.0097         0.9554         1.8625   2  10   0.0744   0.0883   0.1640  -0.0294   0.0373   0.0370   0.00    1.4        -0.2007         0.2068        -0.7101
1874 214152        29.0450         0.9285         1.9238   2  10   0.0737   0.0876   0.1626  -0.0292   0.0369   0.0365   0.00    1.4        -0.1967         0.1895        -0.5871
1874 214152        29.0761         0.9119         1.9810   2  10   0.0731   0.0869   0.1613  -0.0290   0.0366   0.0360   0.00    1.4        -0.1536         0.1521        -0.7202
1874 214152        29.1036         0.8976         2.0699   2  10   0.0725   0.0863   0.1600  -0.0288   0.0362   0.0356   0.00    1.4         0.0392         0.0151         0.0864
1874 214152        29.1317         0.8716         2.1460   2  10   0.0719   0.0856   0.1587  -0.0286   0.0359   0.0351   0.20    1.4        -0.5661         0.5854        -2.3333
1874 214152        29.1298         0.8572         2.1470   2  10   0.0713   0.0850   0.1574  -0.0285   0.0356   0.0347   0.00    1.4        -0.5790         0.6766        -2.2884
1874 214153        29.1189         0.8424         2.1599   2  10   0.0708   0.0844   0.1562  -0.0283   0.0352   0.0342   0.00    1.3        -0.5593         0.6107        -2.2546
1874 214153        29.1032         0.8307         2.1662   2  10   0.0702   0.0838   0.1550  -0.0281   0.0349   0.0338   0.00    1.3        -0.6414         0.6220        -2.5062
1874 214153        29.0885         0.8024         2.1568   2  10   0.0697   0.0832   0.1538  -0.0279   0.0346   0.0334   0.00    1.3        -0.6166         0.6254        -2.4307
1874 214153        29.0800         0.7958         2.2137   2  10   0.0692   0.0826   0.1527  -0.0278   0.0343   0.0330   0.00    1.3        -0.5440         0.6773        -2.2480
1874 214153        29.0713         0.7831         2.2331   2  10   0.0687   0.0820   0.1515  -0.0276   0.0341   0.0327   0.00    1.2        -0.0281         0.0287         0.0343
1874 214154        29.0544         0.7709         2.2208   2  10   0.0682   0.0815   0.1504  -0.0274   0.0338   0.0323   0.00    1.2        -0.0282         0.0034        -0.0562
1874 214154        29.0426         0.7559         2.2154   2  10   0.0677   0.0809   0.1494  -0.0273   0.0335   0.0319   0.00    1.2         0.0434        -0.0446         0.0332
1874 214154        29.0219         0.7560         2.2221   2  10   0.0672   0.0804   0.1483  -0.0271   0.0332   0.0316   0.20    1.2        -0.1363         0.0325        -0.1791
1874 214154        29.0238         0.7430         2.2169   2   9   0.0668   0.0802   0.1475  -0.0272   0.0339   0.0309   0.00    1.8         0.0161        -0.0373        -0.1409
1874 214154        29.0075         0.7368         2.2087   2   9   0.0663   0.0798   0.1466  -0.0272   0.0340   0.0305   0.00    1.8         0.0000         0.0000         0.0000
1874 214155        28.9907         0.7153         2.1610   2  10   0.0659   0.0793   0.1456  -0.0270   0.0338   0.0302   0.00    1.9         0.0000         0.0000         0.0000
1874 214155        28.9825         0.7165         2.1519   2   9   0.0654   0.0790   0.1448  -0.0270   0.0339   0.0297   0.00    2.0         0.0000         0.0000         0.0000
1874 214155        28.9209         0.7797         2.0813   2  10   0.0650   0.0785   0.1439  -0.0268   0.0341   0.0292   0.00    2.1         0.0410        -0.1842        -0.1204
1874 214155        28.8771         0.8203         2.0155   2  10   0.0645   0.0780   0.1431  -0.0266   0.0343   0.0287   0.00    2.0         0.0108         0.1073         0.0282
1874 214155        28.8530         0.8427         1.9608   2  10   0.0641   0.0776   0.1422  -0.0264   0.0345   0.0283   0.00    2.0        -0.0630         0.0431        -0.0793
1874 214156        28.7958         0.9860         2.1406   2  11   0.0636   0.0770   0.1412  -0.0261   0.0342   0.0280   0.00    1.9        -0.0390         0.0467        -0.0696
1874 214156        28.7837         0.9425         2.0354   2  11   0.0632   0.0765   0.1403  -0.0258   0.0340   0.0276   0.00    1.9        -0.0683        -0.0169         0.0317
1874 214156        28.7862         0.9154         1.9741   2  11   0.0628   0.0760   0.1394  -0.0255   0.0338   0.0273   0.00    1.9         0.0376        -0.0030        -0.0051
1874 214156        28.7749         0.8908         1.9412   2  11   0.0624   0.0754   0.1385  -0.0253   0.0337   0.0269   0.00    1.9        -0.0356        -0.0030        -0.0268
1874 214156        28.7710         0.8715         1.8790   2  11   0.0620   0.0750   0.1377  -0.0251   0.0335   0.0266   0.00    1.9         0.0149         0.0279         0.1188
1874 214157        28.7619         0.8448         1.8008   2  11   0.0616   0.0745   0.1368  -0.0248   0.0334   0.0263   0.00    1.9         0.0178        -0.0086        -0.0832
1874 214157        28.7538         0.8218         1.7493   2  11   0.0612   0.0740   0.1360  -0.0246   0.0332   0.0260   0.00    1.9         0.0076         0.0654        -0.1541
1874 214157        28.7487         0.7972         1.7126   2  11   0.0608   0.0735   0.1352  -0.0244   0.0331   0.0257   0.00    1.9        -0.0468        -0.0649        -0.0186
1874 214157        28.7527         0.7640         1.6589   2  11   0.0604   0.0731   0.1344  -0.0242   0.0329   0.0254   0.00    1.9        -0.0129         0.0322        -0.0337
1874 214157        28.7556         0.7367         1.6049   2  11   0.0600   0.0726   0.1336  -0.0240   0.0328   0.0251   0.00    1.9         0.0036        -0.0044         0.0070
1874 214158        28.7504         0.7218         1.5447   2  11   0.0597   0.0722   0.1328  -0.0237   0.0326   0.0248   0.00    1.9         0.0001         0.0143        -0.0107
1874 214158        28.7541         0.7090         1.5004   2  11   0.0593   0.0718   0.1321  -0.0235   0.0325   0.0246   0.00    1.9        -0.0138         0.0201         0.0758
1874 214158        28.7454         0.6930         1.4558   2  11   0.0590   0.0713   0.1313  -0.0234   0.0323   0.0243   0.00    1.9        -0.0466        -0.0213        -0.0062
1874 214158        28.7398         0.6787         1.4113   2  11   0.0587   0.0709   0.1307  -0.0231   0.0323   0.0243   0.20    1.0         0.0102        -0.0126        -0.0012
1874 214158        28.7190         0.6735         1.3571   2  11   0.0583   0.0705   0.1299  -0.0229   0.0321   0.0239   0.00    1.5         0.0214         0.0405         0.0502
1874 214159        28.7151         0.6623         1.3151   2  11   0.0580   0.0701   0.1291  -0.0228   0.0319   0.0236   0.00    1.7        -0.0424        -0.0231        -0.0163
1874 214159        28.7233         0.6573         1.2872   2  11   0.0577   0.0697   0.1284  -0.0226   0.0318   0.0233   0.00    1.7        -0.0291         0.0287         0.0274
1874 214159        28.7356         0.6606         1.2812   2  11   0.0574   0.0693   0.1277  -0.0224   0.0316   0.0230   0.00    1.8         0.0063        -0.0457         0.0164
1874 214159        28.7408         0.6684         1.2726   2  11   0.0570   0.0689   0.1270  -0.0223   0.0315   0.0228   0.00    1.9        -0.0070         0.0169         0.1109
1874 214159        28.7450         0.6666         1.2619   2  11   0.0567   0.0686   0.1264  -0.0221   0.0313   0.0226   0.00    1.9         0.0199        -0.0016         0.0311
1874 214160        28.7506         0.6672         1.2500   2  11   0.0564   0.0682   0.1257  -0.0219   0.0312   0.0223   0.00    2.0        -0.0073         0.0006         0.0069
1874 214160        28.7585         0.6680         1.2417   2  11   0.0561   0.0678   0.1251  -0.0218   0.0311   0.0221   0.00    2.1         0.0261        -0.0040        -0.0602
1874 214160        28.7552         0.6666         1.2245   2  11   0.0558   0.0675   0.1244  -0.0216   0.0309   0.0219   0.00    2.1        -0.0480         0.0189         0.0926
1874 214160        28.7567         0.6590         1.1979   2  11   0.0555   0.0671   0.1238  -0.0215   0.0308   0.0217   0.00    2.1        -0.0231         0.0177        -0.0244
1874 214160        28.7527         0.6546         1.1721   2  11   0.0553   0.0668   0.1232  -0.0213   0.0307   0.0214   0.20    2.2        -0.0237        -0.0180        -0.0219
1874 214161        28.7508         0.6571         1.1521   2  11   0.0550   0.0664   0.1226  -0.0212   0.0305   0.0212   0.00    2.2         0.0135        -0.0131         0.0436
1874 214161        28.7456         0.6573         1.1309   2  11   0.0547   0.0661   0.1219  -0.0210   0.0304   0.0210   0.00    2.2        -0.0022         0.0239        -0.0509
1874 214161        28.7400         0.6586         1.1195   2  11   0.0544   0.0658   0.1214  -0.0209   0.0303   0.0208   0.00    2.2        -0.0500         0.0239         0.1092
1874 214161        28.7402         0.6519         1.0946   2  11   0.0542   0.0655   0.1208  -0.0208   0.0301   0.0206   0.00    2.2         0.0235         0.0060         0.0126
1874 214161        28.7412         0.6453         1.0714   2  11   0.0539   0.0651   0.1202  -0.0206   0.0300   0.0204   0.00    2.2        -0.0244         0.0184        -0.0197
1874 214162        28.7377         0.6366         1.0487   2  11   0.0536   0.0648   0.1196  -0.0205   0.0299   0.0202   0.00    2.2         0.0372        -0.0243        -0.0588
1874 214162        28.7335         0.6306         1.0297   2  11   0.0534   0.0645   0.1190  -0.0204   0.0297   0.0201   0.20    2.1         0.0555         0.0203        -0.0411
1874 214162        28.7306         0.6231         1.0074   2  11   0.0531   0.0642   0.1185  -0.0202   0.0296   0.0199   0.00    2.1        -0.0359         0.0157         0.0948
1874 214162        28.7255         0.6155         0.9716   2  11   0.0529   0.0639   0.1179  -0.0201   0.0295   0.0197   0.00    2.1         0.0455        -0.0040        -0.0276
1874 214162        28.7191         0.6039         0.9475   2  11   0.0526   0.0636   0.1174  -0.0200   0.0294   0.0195   0.00    2.0        -0.0356        -0.0298        -0.0112
1874 214163        28.7173         0.5975         0.9123   2  11   0.0524   0.0633   0.1169  -0.0199   0.0292   0.0194   0.00    2.0         0.0025         0.0470        -0.0488
1874 214163        28.7113         0.5852         0.8818   2  11   0.0522   0.0630   0.1163  -0.0197   0.0291   0.0192   0.00    1.9         0.0003        -0.0085        -0.0366
1874 214163        28.7009         0.5776         0.8558   2  11   0.0519   0.0627   0.1158  -0.0196   0.0290   0.0190   0.00    1.9        -0.0369         0.0384         0.0110
1874 214163        28.6994         0.5663         0.8213   2  11   0.0517   0.0624   0.1153  -0.0195   0.0289   0.0189   0.00    1.8         0.0135        -0.0049         0.0784
1874 214163        28.7010         0.5589         0.7837   2  11   0.0515   0.0622   0.1148  -0.0194   0.0288   0.0187   0.00    1.8         0.0563        -0.0017        -0.0171
1874 214164        28.7017         0.5528         0.7575   2  11   0.0512   0.0619   0.1143  -0.0193   0.0286   0.0185   0.00    1.8         0.0062         0.0417         0.0318
1874 214164        28.6968         0.5402         0.7269   2  11   0.0510   0.0616   0.1138  -0.0192   0.0285   0.0184   0.00    1.8        -0.0209        -0.0213        -0.0000
1874 214164        28.6917         0.5343         0.7040   2  11   0.0508   0.0613   0.1133  -0.0191   0.0284   0.0182   0.00    1.8         0.0036        -0.0167        -0.0598
1874 214164        28.6908         0.5148         0.6635   2  11   0.0506   0.0613   0.1129  -0.0192   0.0287   0.0179   0.00    1.2         0.0004        -0.0204         0.0723
1874 214164        28.6892         0.5081         0.6527   2  11   0.0504   0.0610   0.1124  -0.0190   0.0284   0.0178   0.00    1.4        -0.0156        -0.0164        -0.0323
1874 214165        28.6853         0.4982         0.6306   2  11   0.0502   0.0607   0.1119  -0.0188   0.0283   0.0177   0.20    1.5        -0.0017         0.0269         0.0609
1874 214165        28.6849         0.4879         0.6054   2  11   0.0499   0.0604   0.1114  -0.0187   0.0281   0.0176   0.00    1.4         0.0220        -0.0136        -0.0212
1874 214165        28.6814         0.4791         0.5863   2  11   0.0497   0.0601   0.1110  -0.0186   0.0280   0.0174   0.20    1.3         0.0167        -0.0434         0.0230
1874 214165        28.6781         0.4716         0.5583   2  11   0.0495   0.0599   0.1105  -0.0185   0.0279   0.0173   0.00    1.3        -0.0035        -0.0125        -0.0005
1874 214165        28.6747         0.4610         0.5383   2  11   0.0493   0.0596   0.1100  -0.0184   0.0278   0.0172   0.00    1.2         0.0140         0.0461         0.0775
1874 214166        28.6689         0.4510         0.5089   2  11   0.0491   0.0594   0.1096  -0.0183   0.0277   0.0170   0.00    1.2         0.0059         0.0109        -0.0024
1874 214166        28.6636         0.4403         0.4842   2  11   0.0489   0.0591   0.1091  -0.0182   0.0275   0.0169   0.00    1.1        -0.0159        -0.0113        -0.0490
1874 214166        28.6567         0.4311         0.4630   2  11   0.0487   0.0589   0.1087  -0.0181   0.0274   0.0168   0.00    1.1         0.0054         0.0330        -0.0220
1874 214166        28.6542         0.4198         0.4401   2  11   0.0486   0.0587   0.1083  -0.0180   0.0273   0.0166   0.00    1.0         0.0286        -0.0023        -0.0696
1874 214166        28.6527         0.4101         0.4213   2  11   0.0484   0.0584   0.1078  -0.0179   0.0272   0.0165   0.00    1.1         0.0231         0.0168         0.0131
1874 214167        28.6469         0.3971         0.3930   2  11   0.0482   0.0582   0.1074  -0.0178   0.0271   0.0164   0.00    1.1        -0.0084        -0.0172        -0.0578
1874 214167        28.6434         0.3869         0.3720   2  11   0.0480   0.0580   0.1070  -0.0177   0.0270   0.0163   0.00    1.1        -0.0106         0.0096         0.0130
1874 214167        28.6358         0.3789         0.3556   2  11   0.0478   0.0577   0.1066  -0.0177   0.0269   0.0161   0.00    1.1         0.0141         0.0086         0.0095
1874 214167        28.6305         0.3657         0.3277   2  11   0.0476   0.0575   0.1062  -0.0176   0.0268   0.0160   0.00    1.2        -0.0278         0.0207        -0.0206
1874 214167        28.6240         0.3573         0.3093   2  11   0.0474   0.0573   0.1058  -0.0175   0.0267   0.0159   0.00    1.2         0.0205        -0.0119        -0.0141
1874 214168        28.6178         0.3473         0.2848   2  11   0.0473   0.0571   0.1054  -0.0174   0.0266   0.0158   0.00    1.2         0.0429         0.0103        -0.0025
1874 214168        28.6109         0.3397         0.2690   2  11   0.0471   0.0569   0.1050  -0.0173   0.0265   0.0157   0.00    1.2        -0.0008         0.0168        -0.0284
1874 214168        28.6015         0.3326         0.2512   2  11   0.0469   0.0567   0.1046  -0.0172   0.0264   0.0156   0.00    1.3         0.0128         0.0232        -0.0203
1874 214168        28.5965         0.3189         0.2314   2  11   0.0468   0.0565   0.1042  -0.0172   0.0263   0.0154   0.00    1.3         0.0099        -0.0182        -0.0198
1874 214168        28.5869         0.3161         0.2140   2  11   0.0466   0.0562   0.1038  -0.0171   0.0262   0.0153   0.00    1.3         0.0124        -0.0111        -0.0715
1874 214169        28.5806         0.3072         0.1920   2  11   0.0464   0.0560   0.1034  -0.0170   0.0261   0.0152   0.20    1.4        -0.0454         0.0071        -0.0146
1874 214169        28.5806         0.2995         0.1732   2  11   0.0463   0.0558   0.1030  -0.0169   0.0260   0.0151   0.20    1.4         0.0987        -0.0178        -0.0898
1874 214169        28.5671         0.2907         0.1598   2  11   0.0461   0.0556   0.1027  -0.0169   0.0259   0.0150   0.00    1.4        -0.0437         0.0368         0.0968
1874 214169        28.5529         0.2828         0.1611   2  11   0.0459   0.0554   0.1023  -0.0168   0.0258   0.0149   0.00    1.5        -0.0066        -0.0314        -0.0685
1874 214169        28.5479         0.2758         0.1443   2  11   0.0458   0.0552   0.1019  -0.0167   0.0257   0.0148   0.00    1.5        -0.0517        -0.0045         0.0372
1874 214170        28.5391         0.2685         0.1291   2  11   0.0456   0.0550   0.1016  -0.0166   0.0256   0.0147   0.00    1.5         0.0236        -0.0086        -0.0100
1874 214170        28.5261         0.2599         0.1185   2  11   0.0455   0.0549   0.1012  -0.0166   0.0255   0.0146   0.00    1.5        -0.0666        -0.0356         0.0483
1874 214170        28.5189         0.2535         0.1043   2  11   0.0453   0.0547   0.1008  -0.0165   0.0254   0.0145   0.00    1.5        -0.0350        -0.0016         0.0503
1874 214170        28.5148         0.2513         0.0901   2  11   0.0451   0.0545   0.1005  -0.0164   0.0253   0.0144   0.20    1.5        -0.0268         0.0017        -0.0288
1874 214170        28.5117         0.2520         0.0796   2  11   0.0450   0.0543   0.1001  -0.0164   0.0252   0.0143   0.00    1.6        -0.0024         0.0235         0.0875
1874 214171        28.5055         0.2458         0.0665   2  11   0.0448   0.0541   0.0998  -0.0163   0.0251   0.0142   0.00    1.6        -0.0358        -0.0170         0.0688
1874 214171        28.4976         0.2462         0.0542   2  11   0.0447   0.0539   0.0994  -0.0162   0.0250   0.0141   0.00    1.6        -0.0051         0.0271         0.0314
1874 214171        28.4942         0.2445         0.0441   2  11   0.0445   0.0537   0.0991  -0.0162   0.0249   0.0140   0.00    1.6         0.0778        -0.0228         0.0326
1874 214171        28.4858         0.2409         0.0250   2  11   0.0444   0.0536   0.0988  -0.0161   0.0248   0.0139   0.00    1.6         0.1026         0.0104        -0.0675
1874 214171        28.4816         0.2411         0.0151   2  11   0.0443   0.0534   0.0984  -0.0160   0.0248   0.0138   0.20    1.7         0.0284        -0.0205        -0.0287
1874 214172        28.4768         0.2392        -0.0043   2  11   0.0441   0.0532   0.0981  -0.0160   0.0247   0.0137   0.00    1.7         0.0549         0.0007        -0.0455
1874 214172        28.4671         0.2390        -0.0125   2  11   0.0440   0.0530   0.0978  -0.0159   0.0246   0.0136   0.00    1.8        -0.0110         0.0127        -0.0485
1874 214172        28.4564         0.2365        -0.0192   2  11   0.0438   0.0529   0.0974  -0.0158   0.0245   0.0136   0.00    1.8        -0.0063        -0.0009         0.0097
1874 214172        28.4501         0.2365        -0.0231   2  11   0.0437   0.0527   0.0971  -0.0158   0.0244   0.0135   0.00    1.8        -0.0508        -0.0359        -0.0666
1874 214172        28.4434         0.2354        -0.0312   2  11   0.0436   0.0525   0.0968  -0.0157   0.0243   0.0134   0.00    1.9        -0.0364        -0.0168        -0.0718
1874 214173        28.4384         0.2400        -0.0343   2  11   0.0434   0.0524   0.0965  -0.0157   0.0242   0.0133   0.00    1.9         0.0001         0.0110        -0.0199
1874 214173        28.4318         0.2421        -0.0312   2  11   0.0433   0.0522   0.0961  -0.0156   0.0241   0.0132   0.20    1.9         0.0460         0.0158         0.0838
1874 214173        28.4238         0.2414        -0.0428   2  11   0.0432   0.0520   0.0958  -0.0155   0.0240   0.0131   0.00    2.0        -0.0332        -0.0209        -0.0199
1874 214173        28.4175         0.2450        -0.0455   2  11   0.0430   0.0519   0.0955  -0.0155   0.0240   0.0130   0.20    2.0         0.0069         0.0318        -0.0821
1874 214173        28.4091         0.2476        -0.0412   2  11   0.0429   0.0517   0.0952  -0.0154   0.0239   0.0130   0.00    2.0        -0.0027         0.0362         0.0701
1874 214174        28.4016         0.2494        -0.0539   2  11   0.0428   0.0516   0.0949  -0.0154   0.0238   0.0129   0.00    2.0        -0.0082        -0.0180        -0.0096
1874 214174        28.3948         0.2536        -0.0554   2  11   0.0426   0.0514   0.0946  -0.0153   0.0237   0.0128   0.00    2.1         0.0439         0.0131         0.0059
1874 214174        28.3823         0.2560        -0.0626   2  11   0.0425   0.0512   0.0943  -0.0153   0.0236   0.0127   0.20    2.1         0.0046        -0.0133        -0.0005
1874 214174        28.3738         0.2600        -0.0606   2  11   0.0424   0.0511   0.0940  -0.0152   0.0235   0.0126   0.20    2.2        -0.0083        -0.0054         0.0618
1874 214174        28.3690         0.2602        -0.0687   2  11   0.0423   0.0509   0.0937  -0.0152   0.0234   0.0126   0.00    2.2        -0.0090        -0.0052         0.0659
1874 214175        28.3618         0.2622        -0.0791   2  11   0.0421   0.0508   0.0934  -0.0151   0.0233   0.0125   0.00    2.2         0.0207        -0.0020        -0.0628
1874 214175        28.3528         0.2635        -0.0820   2  11   0.0420   0.0506   0.0931  -0.0151   0.0233   0.0124   0.00    2.3         0.0017         0.0163         0.0225
1874 214175        28.3481         0.2612        -0.0937   2  11   0.0419   0.0505   0.0928  -0.0150   0.0232   0.0123   0.00    2.3        -0.0139        -0.0503         0.0222
1874 214175        28.3418         0.2636        -0.1089   2  11   0.0418   0.0503   0.0925  -0.0149   0.0231   0.0123   0.20    2.4         0.0265        -0.0036        -0.0196
1874 214175        28.3352         0.2662        -0.1111   2  11   0.0416   0.0502   0.0922  -0.0149   0.0230   0.0122   0.00    2.4         0.0304         0.0204        -0.0001
1874 214176        28.3294         0.2662        -0.1239   2  11   0.0415   0.0500   0.0920  -0.0148   0.0229   0.0121   0.20    2.4        -0.0058         0.0114        -0.0319
1874 214176        28.3238         0.2670        -0.1304   2  11   0.0414   0.0499   0.0917  -0.0148   0.0228   0.0120   0.20    2.5        -0.0037         0.0022        -0.0261
1874 214176        28.3180         0.2703        -0.1448   2  11   0.0413   0.0497   0.0914  -0.0147   0.0228   0.0120   0.00    2.5         0.0342         0.0253        -0.0875
1874 214176        28.3139         0.2728        -0.1417   2  11   0.0412   0.0496   0.0911  -0.0147   0.0227   0.0119   0.20    2.5         0.0294        -0.0240         0.0196
1874 214176        28.3085         0.2732        -0.1497   2  11   0.0411   0.0495   0.0908  -0.0147   0.0226   0.0118   0.00    2.6        -0.0024         0.0100         0.0516
1874 214177        28.3071         0.2730        -0.1577   2  11   0.0409   0.0493   0.0906  -0.0146   0.0225   0.0118   0.00    2.6         0.0046        -0.0324        -0.1044
1874 214177        28.3030         0.2796        -0.1532   2  11   0.0408   0.0492   0.0903  -0.0146   0.0224   0.0117   0.00    2.6        -0.0179         0.0247         0.0542
1874 214177        28.2991         0.2812        -0.1645   2  11   0.0407   0.0490   0.0900  -0.0145   0.0223   0.0116   0.00    2.7         0.0210         0.0203         0.0493
1874 214177        28.2953         0.2819        -0.1694   2  11   0.0406   0.0489   0.0898  -0.0145   0.0223   0.0116   0.00    2.7         0.0317         0.0035        -0.0085
1874 214177        28.2943         0.2854        -0.1706   2  11   0.0405   0.0488   0.0895  -0.0144   0.0222   0.0115   0.00    2.7        -0.0175        -0.0016        -0.0374
1874 214178        28.2895         0.2871        -0.1763   2  11   0.0404   0.0486   0.0892  -0.0144   0.0221   0.0114   0.00    2.8        -0.0024         0.0054         0.0170
1874 214178        28.2877         0.2896        -0.1848   2  11   0.0403   0.0485   0.0890  -0.0143   0.0220   0.0114   0.00    2.8         0.0029         0.0049         0.0021
1874 214178        28.2839         0.2907        -0.1895   2  11   0.0402   0.0484   0.0887  -0.0143   0.0219   0.0113   0.20    2.8        -0.0059        -0.0169         0.0087
1874 214178        28.2797         0.2934        -0.1843   2  11   0.0401   0.0482   0.0885  -0.0142   0.0219   0.0112   0.20    2.9        -0.0225        -0.0088         0.0511
1874 214178        28.2775         0.2935        -0.1966   2  11   0.0400   0.0481   0.0882  -0.0142   0.0218   0.0112   0.00    2.9        -0.0128         0.0109         0.0046
1874 214179        28.2750         0.2961        -0.2001   2  11   0.0399   0.0480   0.0879  -0.0142   0.0217   0.0111   0.00    2.9         0.0106        -0.0218        -0.0727
1874 214179        28.2744         0.2983        -0.2031   2  11   0.0398   0.0478   0.0877  -0.0141   0.0216   0.0110   0.00    2.9         0.0042         0.0164         0.0018
1874 214179        28.2692         0.2990        -0.2049   2  11   0.0396   0.0477   0.0874  -0.0141   0.0215   0.0110   0.00    3.0         0.0159        -0.0430         0.0126
1874 214179        27.9419         0.2252        -1.5507   1  11   0.0054   0.0066   0.0126  -0.0016   0.0035   0.0008   0.00    3.0        -0.0347         0.0365         0.0295
1874 214179        27.9409         0.2229        -1.5539   1  11   0.0054   0.0066   0.0126  -0.0016   0.0035   0.0008   0.00    3.0         0.0047        -0.0088        -0.0937
1874 214180        27.9404         0.2259        -1.5463   1  11   0.0054   0.0066   0.0126  -0.0016   0.0035   0.0008   0.00    3.1        -0.0221         0.0598         0.0191
1874 214180        27.9390         0.2243        -1.5473   1  11   0.0054   0.0066   0.0126  -0.0016   0.0035   0.0008   0.20    3.1         0.0156         0.0157         0.0433
1874 214180        27.9378         0.2239        -1.5444   1  11   0.0054   0.0066   0.0126  -0.0016   0.0035   0.0008   0.00    3.1         0.0045        -0.0243         0.0489
1874 214180        27.9373         0.2223        -1.5445   1  11   0.0054   0.0066   0.0126  -0.0016   0.0035   0.0008   0.00    3.1        -0.0620        -0.0050         0.0031
1874 214180        27.9423         0.2245        -1.5534   1  11   0.0054   0.0066   0.0126  -0.0016   0.0035   0.0008   0.00    3.1         0.0049        -0.0392        -0.0946
1874 214181        27.9456         0.2258        -1.5557   1  11   0.0054   0.0066   0.0126  -0.0016   0.0035   0.0008   0.20    3.2         0.0198         0.0328         0.0367
1874 214181        27.9450         0.2245        -1.5503   1  11   0.0054   0.0066   0.0126  -0.0016   0.0035   0.0008   0.00    3.2         0.0055         0.0314         0.0717
1874 214181        27.9434         0.2273        -1.5560   1  11   0.0054   0.0066   0.0126  -0.0016   0.0035   0.0008   0.00    3.3        -0.0097         0.0286         0.0368
1874 214181        27.9424         0.2276        -1.5561   1  11   0.0054   0.0066   0.0126  -0.0016   0.0035   0.0008   0.00   43.5        -0.0098         0.0044         0.0051
1874 214181        27.9420         0.2263        -1.5563   1  11   0.0054   0.0066   0.0126  -0.0016   0.0035   0.0008   0.00   48.1        -0.0501        -0.0099         0.0182
1874 214182        27.9438         0.2264        -1.5516   1  11   0.0054   0.0066   0.0126  -0.0016   0.0035   0.0008   0.00   52.6        -0.0655        -0.0192        -0.0354
1874 214182        27.9444         0.2264        -1.5550   1  11   0.0054   0.0066   0.0126  -0.0016   0.0035   0.0008   0.20   57.1        -0.0028         0.0055        -0.0746
1874 214182        27.9414         0.2225        -1.5471   1  11   0.0054   0.0066   0.0126  -0.0016   0.0035   0.0008   0.00   61.1        -0.0387         0.0312         0.0978
1874 214182        27.9402         0.2265        -1.5418   1  11   0.0054   0.0066   0.0126  -0.0016   0.0035   0.0008   0.00   64.8        -0.0039         0.0327         0.0397
1874 214182        27.9401         0.2229        -1.5462   1  11   0.0054   0.0066   0.0126  -0.0016   0.0035   0.0008   0.00   68.7         0.0268         0.0192         0.1015
1874 214183        27.9392         0.2240        -1.5453   1  11   0.0054   0.0066   0.0126  -0.0016   0.0035   0.0008   0.00   72.2        -0.0103         0.0086         0.0208
1874 214183        27.9384         0.2240        -1.5551   1  11   0.0054   0.0066   0.0126  -0.0016   0.0035   0.0008   0.00   76.3         0.0118        -0.0279        -0.1159
1874 214183        27.9418         0.2254        -1.5524   1  11   0.0054   0.0066   0.0126  -0.0016   0.0035   0.0008   0.00   80.5         0.0200         0.0148         0.0570
1874 214183        27.9407         0.2237        -1.5542   1  11   0.0054   0.0066   0.0126  -0.0016   0.0035   0.0008   0.20   85.1        -0.0603        -0.0132         0.0429
1874 214183        27.9470         0.2238        -1.5570   1  11   0.0054   0.0066   0.0126  -0.0016   0.0035   0.0008   0.00   90.0         0.0240        -0.0140        -0.0564
1874 214184        27.9467         0.2248        -1.5570   1  11   0.0054   0.0066   0.0126  -0.0016   0.0035   0.0008   0.00   95.2         0.0300         0.0310        -0.0022
1874 214184        27.9450         0.2235        -1.5586   1  11   0.0054   0.0066   0.0126  -0.0016   0.0035   0.0008   0.20   99.9        -0.0084         0.0136        -0.1075
1874 214184        27.9446         0.2239        -1.5542   1  11   0.0054   0.0066   0.0126  -0.0016   0.0035   0.0008   0.00  104.5        -0.0127        -0.0117        -0.0189
1874 214184        27.9435         0.2238        -1.5569   1  11   0.0054   0.0066   0.0126  -0.0016   0.0035   0.0008   0.20  109.6         0.0026        -0.0245        -0.0816
1874 214184        27.9448         0.2255        -1.5515   1  11   0.0054   0.0066   0.0126  -0.0016   0.0035   0.0008   0.00  114.7         0.0039         0.0155        -0.0012
1874 214185        27.9409         0.2245        -1.5552   1  11   0.0054   0.0066   0.0126  -0.0016   0.0035   0.0008   0.00  119.9        -0.0113        -0.0123         0.0070
1874 214185        27.9421         0.2234        -1.5549   1  11   0.0054   0.0066   0.0126  -0.0016   0.0035   0.0008   0.00  125.3        -0.0184        -0.0108        -0.0394
1874 214185        27.9433         0.2241        -1.5576   1  11   0.0054   0.0066   0.0126  -0.0016   0.0035   0.0008   0.00  130.6        -0.0279        -0.0154        -0.0106
1874 214185        27.9444         0.2230        -1.5509   1  11   0.0054   0.0066   0.0126  -0.0016   0.0035   0.0008   0.00  136.1        -0.0215         0.0194        -0.0147
1874 214185        27.9432         0.2239        -1.5494   1  11   0.0054   0.0066   0.0126  -0.0016   0.0035   0.0008   0.00  141.7         0.0034         0.0198         0.0912
1874 214186        27.9442         0.2232        -1.5542   1  11   0.0054   0.0066   0.0126  -0.0016   0.0035   0.0008   0.00  147.1         0.0293        -0.0401        -0.0182
1874 214186        27.9422         0.2266        -1.5521   1  11   0.0054   0.0066   0.0126  -0.0016   0.0035   0.0007   0.00  152.9        -0.0073         0.0090        -0.0286
1874 214186        27.9415         0.2250        -1.5522   1  11   0.0054   0.0066   0.0126  -0.0016   0.0035   0.0008   0.20  158.6         0.0107         0.0188         0.0193
1874 214186        27.9413         0.2261        -1.5517   1  11   0.0054   0.0066   0.0126  -0.0016   0.0035   0.0007   0.00  164.3        -0.0005        -0.0040        -0.0023
1874 214186        27.9406         0.2249        -1.5508   1  11   0.0054   0.0066   0.0126  -0.0016   0.0035   0.0007   0.00  170.4         0.0111        -0.0087        -0.0062
1874 214187        27.9423         0.2240        -1.5521   1  11   0.0054   0.0066   0.0126  -0.0016   0.0035   0.0007   0.00  176.5         0.0141        -0.0159        -0.0247
1874 214187        27.9434         0.2224        -1.5506   1  11   0.0054   0.0066   0.0126  -0.0016   0.0035   0.0007   0.00  182.5        -0.0017        -0.0101         0.0245
1874 214187        27.9424         0.2225        -1.5522   1  11   0.0054   0.0066   0.0126  -0.0016   0.0035   0.0007   0.00  188.0        -0.0071        -0.0009        -0.0373
1874 214187        27.9428         0.2242        -1.5512   1  11   0.0054   0.0066   0.0126  -0.0016   0.0035   0.0007   0.00  193.6        -0.0203         0.0002         0.0340
1874 214187        27.9418         0.2242        -1.5521   1  11   0.0054   0.0066   0.0126  -0.0016   0.0035   0.0007   0.00  199.0         0.0101         0.0122         0.0673
1874 214188        27.9413         0.2251        -1.5498   1  11   0.0054   0.0066   0.0126  -0.0016   0.0035   0.0007   0.00  204.5        -0.0089        -0.0108        -0.0242
1874 214188        27.9391         0.2254        -1.5502   1  11   0.0054   0.0066   0.0126  -0.0016   0.0035   0.0007   0.00  210.7        -0.0022        -0.0211         0.0379
1874 214188        27.9409         0.2261        -1.5500   1  11   0.0054   0.0066   0.0126  -0.0016   0.0035   0.0007   0.20  216.4        -0.0136         0.0260        -0.0169
1874 214188        27.9408         0.2245        -1.5547   1  11   0.0054   0.0066   0.0126  -0.0016   0.0035   0.0007   0.00  222.4         0.0240        -0.0152        -0.0139
1874 214188        27.9430         0.2239        -1.5510   1  11   0.0054   0.0066   0.0125  -0.0016   0.0035   0.0007   0.00  228.5         0.0110        -0.0108         0.0030
1874 214189        27.9444         0.2282        -1.5502   1  11   0.0054   0.0066   0.0125  -0.0016   0.0035   0.0007   0.00  234.8         0.0166         0.0261         0.0043
1874 214189        27.9448         0.2243        -1.5498   1  11   0.0054   0.0066   0.0125  -0.0016   0.0035   0.0007   0.00  241.0        -0.0189        -0.0040         0.0017
1874 214189        27.9442         0.2278        -1.5460   1  11   0.0054   0.0066   0.0125  -0.0016   0.0035   0.0007   0.00  247.9         0.0209         0.0318         0.0172
1874 214189        27.9434         0.2257        -1.5506   1  11   0.0054   0.0066   0.0125  -0.0016   0.0035   0.0007   0.00  253.6         0.0406        -0.0276        -0.0381
1874 214189        27.9424         0.2262        -1.5434   1  11   0.0054   0.0066   0.0126  -0.0016   0.0035   0.0007   0.20  258.9        -0.0061         0.0035         0.0484
1874 214190        27.9394         0.2236        -1.5435   1  11   0.0054   0.0066   0.0125  -0.0016   0.0035   0.0007   0.00  263.6        -0.0074        -0.0047         0.0315
1874 214190        27.9393         0.2249        -1.5434   1  11   0.0054   0.0066   0.0125  -0.0016   0.0035   0.0007   0.00  267.9        -0.0026         0.0077         0.0272
1874 214190        27.9376         0.2229        -1.5394   1  11   0.0054   0.0066   0.0125  -0.0016   0.0035   0.0007   0.00  271.1        -0.0451        -0.0185         0.0826
1874 214190        27.9374         0.2240        -1.5466   1  11   0.0054   0.0066   0.0125  -0.0016   0.0035   0.0007   0.00  274.1        -0.0597        -0.0255        -0.0881
1874 214190        27.9378         0.2238        -1.5388   1  11   0.0054   0.0066   0.0125  -0.0016   0.0035   0.0007   0.00  277.4         0.0276         0.0043         0.0662
1874 214191        27.9402         0.2251        -1.5542   1  11   0.0054   0.0066   0.0125  -0.0016   0.0035   0.0007   0.00  284.3         0.0087        -0.0344        -0.0546
1874 214191        27.9423         0.2248        -1.5556   1  11   0.0054   0.0066   0.0126  -0.0016   0.0035   0.0007   0.20  291.1        -0.0066        -0.0077        -0.0403
1874 214191        27.9413         0.2254        -1.5506   1  11   0.0054   0.0066   0.0125  -0.0016   0.0035   0.0007   0.00  297.5        -0.0176        -0.0051        -0.0101
1874 214191        27.9430         0.2243        -1.5501   1  11   0.0054   0.0066   0.0125  -0.0016   0.0035   0.0007   0.00  304.8         0.0468         0.0078        -0.0148
1874 214191        27.9393         0.2250        -1.5505   1  11   0.0054   0.0066   0.0125  -0.0016   0.0035   0.0007   0.00  311.5        -0.0171        -0.0081         0.0299
1874 214192        27.9416         0.2256        -1.5528   1  11   0.0054   0.0066   0.0125  -0.0016   0.0035   0.0007   0.00  318.3         0.0248        -0.0070        -0.0494
1874 214192        27.9400         0.2245        -1.5503   1  11   0.0054   0.0066   0.0125  -0.0016   0.0035   0.0007   0.00  324.5        -0.0095         0.0012        -0.0120
1874 214192        27.9447         0.2222        -1.5518   1  11   0.0054   0.0066   0.0125  -0.0016   0.0035   0.0007   0.00  332.4         0.0007        -0.0126        -0.0350
1874 214192        27.9447         0.2243        -1.5545   1  11   0.0054   0.0066   0.0125  -0.0016   0.0035   0.0007   0.00  340.2         0.0439        -0.0120         0.0014
1874 214192        27.9394         0.2269        -1.5478   1  11   0.0054   0.0066   0.0125  -0.0016   0.0035   0.0007   0.00  345.8        -0.0497         0.0152        -0.0187
1874 214193        27.9380         0.2227        -1.5437   1  11   0.0054   0.0066   0.0125  -0.0016   0.0035   0.0007   0.00  350.8        -0.0152         0.0286         0.0041
1874 214193        27.9361         0.2227        -1.5454   1  11   0.0054   0.0066   0.0125  -0.0016   0.0035   0.0007   0.00  355.7        -0.0086        -0.0375        -0.0016
1874 214193        27.9365         0.2223        -1.5506   1  11   0.0054   0.0066   0.0125  -0.0016   0.0035   0.0007   0.00  359.8         0.0078         0.0017        -0.1143
1874 214193        27.9377         0.2234        -1.5444   1  11   0.0054   0.0066   0.0125  -0.0016   0.0035   0.0007   0.00  364.8         0.0129         0.0237         0.1113
1874 214193        27.9406         0.2235        -1.5468   1  11   0.0054   0.0066   0.0125  -0.0016   0.0035   0.0007   0.00  369.4         0.0212        -0.0177        -0.0024
1874 214194        27.9384         0.2228        -1.5532   1  11   0.0054   0.0066   0.0126  -0.0016   0.0035   0.0007   0.20  373.8         0.0030        -0.0181        -0.0201
1874 214194        27.9418         0.2216        -1.5520   1  11   0.0054   0.0066   0.0125  -0.0016   0.0035   0.0007   0.00  379.2         0.0024         0.0100        -0.0028
1874 214194        27.9419         0.2231        -1.5528   1  11   0.0054   0.0066   0.0125  -0.0016   0.0035   0.0007   0.00  385.7        -0.0198         0.0142         0.0433
1874 214194        27.9408         0.2229        -1.5505   1  11   0.0054   0.0066   0.0126  -0.0016   0.0035   0.0007   0.20  391.6        -0.0469        -0.0085         0.0302
1874 214194        27.9409         0.2240        -1.5524   1  11   0.0054   0.0066   0.0125  -0.0016   0.0035   0.0007   0.00  397.9         0.0013         0.0074        -0.0408
1874 214195        27.9424         0.2244        -1.5524   1  11   0.0054   0.0066   0.0125  -0.0016   0.0035   0.0007   0.00  403.1         0.0239        -0.0233        -0.0105
1874 214195        27.9420         0.2217        -1.5533   1  11   0.0054   0.0066   0.0125  -0.0016   0.0035   0.0007   0.00  409.1        -0.0104        -0.0131        -0.0248
1874 214195        27.9428         0.2222        -1.5545   1  11   0.0054   0.0066   0.0126  -0.0016   0.0035   0.0007   0.20  416.0         0.0084        -0.0057        -0.0270
1874 214195        27.9432         0.2234        -1.5548   1  11   0.0054   0.0066   0.0125  -0.0016   0.0035   0.0007   0.00  421.9        -0.0117        -0.0054        -0.0130
1874 214195        27.9422         0.2245        -1.5504   1  11   0.0054   0.0066   0.0125  -0.0016   0.0035   0.0007   0.00  427.7        -0.0054         0.0351         0.0493
1874 214196        27.9420         0.2228        -1.5524   1  11   0.0054   0.0066   0.0125  -0.0016   0.0035   0.0007   0.00  433.4         0.0185        -0.0359        -0.0050
1874 214196        27.9429         0.2230        -1.5506   1  11   0.0054   0.0066   0.0125  -0.0016   0.0035   0.0007   0.00  438.7         0.0147        -0.0060        -0.0048
1874 214196        27.9399         0.2225        -1.5545   1  11   0.0054   0.0066   0.0125  -0.0016   0.0035   0.0007   0.00  444.2        -0.0141         0.0210        -0.0282
1874 214196        27.9394         0.2247        -1.5513   1  11   0.0054   0.0066   0.0125  -0.0016   0.0035   0.0007   0.00  449.4        -0.0313         0.0382         0.0689
1874 214196        27.9417         0.2203        -1.5523   1  11   0.0054   0.0066   0.0125  -0.0016   0.0035   0.0007   0.00  454.4        -0.0106         0.0001         0.0231
1874 214197        27.9379         0.2200        -1.5510   1  11   0.0054   0.0066   0.0125  -0.0016   0.0035   0.0007   0.00  459.8        -0.0120        -0.0265         0.0131
1874 214197        27.9369         0.2177        -1.5516   1  11   0.0054   0.0066   0.0125  -0.0016   0.0035   0.0007   0.00  464.9         0.0006        -0.0221         0.0107
1874 214197        27.9361         0.2185        -1.5557   1  11   0.0054   0.0066   0.0126  -0.0016   0.0035   0.0007   0.20  469.9        -0.0207         0.0078         0.0077
1874 214197        27.9380         0.2199        -1.5493   1  11   0.0054   0.0066   0.0125  -0.0016   0.0035   0.0007   0.00  475.0         0.0212         0.0142         0.0670
1874 214197        27.9390         0.2200        -1.5517   1  11   0.0054   0.0066   0.0125  -0.0016   0.0035   0.0007   0.00  479.8         0.0166         0.0089         0.0359
1874 214198        27.9405         0.2216        -1.5540   1  11   0.0054   0.0066   0.0126  -0.0016   0.0035   0.0007   0.20  485.4         0.0168        -0.0103        -0.0028
1874 214198        27.9385         0.2241        -1.5553   1  11   0.0054   0.0066   0.0126  -0.0016   0.0035   0.0007   0.20  492.6         0.0019         0.0292        -0.0113
1874 214198        27.9412         0.2222        -1.5527   1  11   0.0054   0.0066   0.0125  -0.0016   0.0035   0.0007   0.00  498.1         0.0020         0.0177         0.0791
1874 214198        27.9412         0.2240        -1.5551   1  11   0.0054   0.0066   0.0125  -0.0016   0.0035   0.0007   0.00  503.6        -0.0192        -0.0137        -0.0636
1874 214198        27.9442         0.2207        -1.5580   1  11   0.0054   0.0066   0.0125  -0.0016   0.0035   0.0007   0.00  508.6        -0.0126        -0.0364        -0.0024
1874 214199        27.9403         0.2248        -1.5500   1  11   0.0054   0.0066   0.0125  -0.0016   0.0035   0.0007   0.00  513.8        -0.0499         0.0628         0.1222
1874 214199        27.9419         0.2215        -1.5532   1  11   0.0054   0.0066   0.0125  -0.0016   0.0035   0.0007   0.00  518.4        -0.0132        -0.0040         0.0086
1874 214199        27.9397         0.2219        -1.5561   1  11   0.0054   0.0066   0.0125  -0.0016   0.0035   0.0007   0.00  523.6        -0.0157        -0.0179        -0.0656
1874 214199        27.9413         0.2230        -1.5481   1  11   0.0054   0.0066   0.0125  -0.0016   0.0035   0.0007   0.00  528.0         0.0350         0.0324         0.0064
1874 214199        27.9423         0.2223        -1.5509   1  11   0.0054   0.0066   0.0125  -0.0016   0.0035   0.0007   0.00  532.4         0.0257        -0.0123        -0.0229
1874 214200        27.9418         0.2234        -1.5529   1  11   0.0054   0.0066   0.0125  -0.0016   0.0035   0.0007   0.00  536.2        -0.0102         0.0093        -0.0183
1874 214200        27.9420         0.2214        -1.5536   1  11   0.0054   0.0066   0.0125  -0.0016   0.0035   0.0007   0.00  540.6         0.0498        -0.0199        -0.0355
1874 214200        27.9409         0.2224        -1.5493   1  11   0.0054   0.0066   0.0125  -0.0016   0.0035   0.0007   0.00  545.8         0.0040        -0.0232         0.0046
1874 214200        27.9412         0.2242        -1.5483   1  11   0.0054   0.0066   0.0126  -0.0016   0.0035   0.0007   0.20  550.1        -0.0185         0.0139         0.0380
1874 214200        27.9421         0.2205        -1.5484   1  11   0.0054   0.0066   0.0125  -0.0016   0.0035   0.0007   0.00  554.8        -0.0277        -0.0187         0.0683
1874 214201        27.9419         0.2226        -1.5544   1  11   0.0054   0.0066   0.0125  -0.0016   0.0035   0.0006   0.00  560.5        -0.0196         0.0145         0.0260
1874 214201        27.9417         0.2202        -1.5572   1  11   0.0054   0.0066   0.0125  -0.0016   0.0035   0.0006   0.00  565.3         0.0027        -0.0418        -0.0634
1874 214201        27.9423         0.2196        -1.5497   1  11   0.0054   0.0066   0.0125  -0.0016   0.0035   0.0006   0.00  570.9        -0.0321        -0.0366        -0.1072
1874 214201        27.9414         0.2220        -1.5521   1  11   0.0054   0.0066   0.0125  -0.0016   0.0035   0.0006   0.00  573.8        -0.0079         0.0195         0.0307
1874 214201        27.9401         0.2205        -1.5507   1  11   0.0054   0.0066   0.0125  -0.0016   0.0035   0.0006   0.00  577.4        -0.0189        -0.0188         0.1062
1874 214202        27.9402         0.2220        -1.5573   1  11   0.0054   0.0066   0.0125  -0.0016   0.0035   0.0006   0.00  583.2         0.0056        -0.0048        -0.0349
1874 214202        27.9399         0.2224        -1.5533   1  11   0.0054   0.0066   0.0126  -0.0016   0.0035   0.0006   0.20  587.9         0.0103        -0.0072         0.0007
1874 214202        27.9406         0.2238        -1.5579   1  11   0.0054   0.0066   0.0126  -0.0016   0.0035   0.0006   0.20  593.3         0.0033         0.0264        -0.0663
1874 214202        27.9433         0.2199        -1.5544   1  11   0.0054   0.0066   0.0125  -0.0016   0.0035   0.0006   0.00  597.7         0.0266         0.0301         0.0984
1874 214202        27.9391         0.2203        -1.5564   1  11   0.0054   0.0066   0.0125  -0.0016   0.0035   0.0006   0.00  601.4        -0.0030        -0.0466        -0.0750
1874 214203        27.9414         0.2224        -1.5589   1  11   0.0054   0.0066   0.0126  -0.0016   0.0035   0.0006   0.20  605.9         0.0224        -0.0178        -0.0366
1874 214203        27.9427         0.2211        -1.5558   1  11   0.0054   0.0066   0.0125  -0.0016   0.0035   0.0006   0.00  611.3        -0.0104         0.0777         0.0503
1874 214203        27.9428         0.2230        -1.5503   1  11   0.0054   0.0066   0.0126  -0.0016   0.0035   0.0006   0.20  616.3         0.0018         0.0353         0.0207
1874 214203        27.9416         0.2177        -1.5559   1  11   0.0054   0.0066   0.0125  -0.0016   0.0035   0.0006   0.00  621.5         0.0107        -0.0477        -0.0406
1874 214203        27.9435         0.2199        -1.5536   1  11   0.0054   0.0066   0.0125  -0.0016   0.0035   0.0006   0.00  626.5         0.0338        -0.0437         0.0842
1874 214204        27.9394         0.2199        -1.5532   1  11   0.0054   0.0066   0.0125  -0.0016   0.0035   0.0006   0.00  630.0        -0.0267        -0.0499         0.0060
1874 214204        27.9352         0.2182        -1.5559   1  11   0.0054   0.0066   0.0125  -0.0016   0.0035   0.0006   0.00  635.3         0.0246         0.0490         0.0218
1874 214204        27.9299         0.2226        -1.5430   1  11   0.0054   0.0066   0.0125  -0.0016   0.0035   0.0006   0.00  639.8        -0.0496         0.0101         0.0935
1874 214204        27.9336         0.2234        -1.5401   1  11   0.0054   0.0066   0.0125  -0.0016   0.0035   0.0006   0.00  645.3        -0.0175        -0.0055         0.0651
1874 214204        27.9311         0.2224        -1.5447   1  11   0.0054   0.0066   0.0125  -0.0016   0.0035   0.0006   0.00  650.4         0.0833        -0.0215        -0.0122
1874 214205        27.9298         0.2198        -1.5475   1  11   0.0054   0.0066   0.0126  -0.0016   0.0035   0.0006   0.20  654.1        -0.0285         0.0047         0.0563
1874 214205        27.9325         0.2191        -1.5531   1  11   0.0054   0.0066   0.0125  -0.0016   0.0035   0.0006   0.00  656.3        -0.0167        -0.0049        -0.0696
1874 214205        27.9334         0.2102        -1.5624   1  11   0.0054   0.0066   0.0126  -0.0016   0.0035   0.0006   0.20  660.9         0.0307         0.0061         0.0037
1874 214205        27.9333         0.2157        -1.5481   1  11   0.0054   0.0066   0.0126  -0.0016   0.0035   0.0006   0.20  667.9         0.0077        -0.0084        -0.0694
1874 214205        27.9343         0.2193        -1.5382   1  11   0.0054   0.0066   0.0126  -0.0016   0.0035   0.0006   0.40  672.6        -0.0280        -0.0079         0.1391
1874 214206        27.9375         0.2213        -1.5425   1  11   0.0054   0.0066   0.0125  -0.0016   0.0035   0.0006   0.00  677.3        -0.0287         0.0155         0.0563
1874 214206        27.9412         0.2147        -1.5664   1  11   0.0054   0.0066   0.0126  -0.0016   0.0035   0.0006   0.20  681.6         0.0748        -0.1209        -0.3469
1874 214206        27.9358         0.2185        -1.5574   1  11   0.0054   0.0066   0.0126  -0.0016   0.0035   0.0006   0.20  686.1        -0.0472        -0.0435        -0.0048
