% program   : RTKPOST ver.2.4.2
% inp file  : C:\Users\Administrator\Desktop\ubxlog\rtklib_ubxstream_x8_log201512061145.obs
% inp file  : C:\Users\Administrator\Desktop\ubxlog\rtklib_ubxstream_base_log201512061145.obs
% inp file  : C:\Users\Administrator\Desktop\ubxlog\rtklib_ubxstream_x8_log201512061145.*nav
% obs start : 2015/12/06 11:45:17.8 GPST (week1874  42317.8s)
% obs end   : 2015/12/06 12:26:27.8 GPST (week1874  44787.8s)
% pos mode  : moving-base
% freqs     : L1
% solution  : forward
% elev mask : 10.0 deg
% dynamics  : on
% tidecorr  : off
% ionos opt : broadcast
% tropo opt : saastamoinen
% ephemeris : broadcast
% amb res   : fix and hold
% val thres : 3.0
% antenna1  :                       ( 0.0000  0.0000  0.0000)
% antenna2  :                       ( 0.0000  0.0000  0.0000)
%
% (e/n/u-baseline=WGS84,Q=1:fix,2:float,3:sbas,4:dgps,5:single,6:ppp,ns=# of satellites)
%  GPST          e-baseline(m)  n-baseline(m)  u-baseline(m)   Q  ns   sde(m)   sdn(m)   sdu(m)  sden(m)  sdnu(m)  sdue(m) age(s)  ratio
1874  42321.000         5.1557        -0.6826        -5.7750   2  11   0.5313   0.6298   1.2408  -0.1663   0.3274  -0.1959  -1.00    1.1
1874  42321.200         5.2072        -0.6401        -5.8353   2  11   0.3784   0.4503   0.8833  -0.1189   0.2290  -0.1392  -0.80    1.0
1874  42321.400         5.1962        -0.6049        -5.8097   2  11   0.3098   0.3691   0.7228  -0.0975   0.1862  -0.1138  -0.60    1.0
1874  42321.600         5.1817        -0.5664        -5.7760   2  11   0.2686   0.3203   0.6267  -0.0846   0.1610  -0.0987  -0.40    1.0
1874  42321.800         5.1761        -0.5446        -5.7605   2  11   0.2404   0.2868   0.5610  -0.0757   0.1438  -0.0883  -0.20    1.0
1874  42322.000         5.1860        -0.5286        -5.7531   2  11   0.2196   0.2620   0.5123  -0.0692   0.1311  -0.0806   0.00    1.0
1874  42322.200         5.2043        -0.5186        -5.7626   2  11   0.2034   0.2427   0.4745  -0.0641   0.1213  -0.0747   0.20    1.0
1874  42322.400         5.2171        -0.5122        -5.7668   2  11   0.1903   0.2271   0.4440  -0.0600   0.1134  -0.0699   0.40    1.0
1874  42322.600         5.2379        -0.5075        -5.8003   2  11   0.1795   0.2142   0.4187  -0.0566   0.1069  -0.0659   0.60    1.0
1874  42322.800         5.2561        -0.4953        -5.8288   2  11   0.1703   0.2033   0.3973  -0.0537   0.1014  -0.0626   0.80    1.0
1874  42323.000         5.2670        -0.4633        -5.8261   2  11   0.1624   0.1939   0.3788  -0.0512   0.0966  -0.0597   0.00    1.0
1874  42323.200         5.2706        -0.4269        -5.8211   2  11   0.1555   0.1857   0.3627  -0.0491   0.0925  -0.0571   0.20    1.0
1874  42323.400         5.2654        -0.3957        -5.8123   2  11   0.1494   0.1784   0.3485  -0.0471   0.0888  -0.0549   0.40    1.0
1874  42323.600         5.2680        -0.3755        -5.7927   2  11   0.1440   0.1719   0.3359  -0.0454   0.0856  -0.0529   0.60    1.0
1874  42323.800         5.2738        -0.3573        -5.7895   2  11   0.1391   0.1661   0.3245  -0.0439   0.0826  -0.0511   0.80    1.0
1874  42324.000         5.2890        -0.3437        -5.7837   2  11   0.1347   0.1609   0.3142  -0.0425   0.0800  -0.0495   0.00    1.0
1874  42324.200         5.2929        -0.3308        -5.7780   2  11   0.1307   0.1561   0.3049  -0.0413   0.0776  -0.0481   0.20    1.0
1874  42324.400         5.2938        -0.3159        -5.7637   2  11   0.1271   0.1517   0.2963  -0.0401   0.0754  -0.0467   0.40    1.0
1874  42324.600         5.3008        -0.2931        -5.7300   2  11   0.1237   0.1477   0.2884  -0.0390   0.0733  -0.0455   0.60    1.0
1874  42324.800         5.3108        -0.2675        -5.6881   2  11   0.1206   0.1440   0.2811  -0.0381   0.0715  -0.0443   0.80    1.0
1874  42325.000         5.3255        -0.2253        -5.6244   2  11   0.1177   0.1405   0.2743  -0.0371   0.0697  -0.0433   0.00    1.0
1874  42325.200         5.3301        -0.1924        -5.5616   2  11   0.1150   0.1373   0.2680  -0.0363   0.0681  -0.0423   0.20    1.0
1874  42325.400         5.3300        -0.1531        -5.4985   2  11   0.1124   0.1343   0.2621  -0.0355   0.0666  -0.0414   0.40    1.0
1874  42325.600         5.3312        -0.1181        -5.4469   2  11   0.1101   0.1315   0.2566  -0.0348   0.0652  -0.0405   0.60    1.0
1874  42325.800         5.3272        -0.0786        -5.3884   2  11   0.1079   0.1288   0.2514  -0.0341   0.0638  -0.0397   0.80    1.1
1874  42326.000         5.3227        -0.0343        -5.3440   2  11   0.1058   0.1263   0.2466  -0.0334   0.0626  -0.0389   0.00    1.1
1874  42326.200         5.3212         0.0043        -5.2933   2  11   0.1038   0.1240   0.2419  -0.0328   0.0614  -0.0382   0.20    1.1
1874  42326.400         5.3241         0.0427        -5.2400   2  11   0.1019   0.1217   0.2376  -0.0322   0.0602  -0.0375   0.40    1.1
1874  42326.600         5.3204         0.0767        -5.1963   2  11   0.1002   0.1196   0.2334  -0.0316   0.0592  -0.0369   0.60    1.1
1874  42326.800         5.3239         0.1091        -5.1562   2  11   0.0985   0.1176   0.2295  -0.0311   0.0581  -0.0362   0.80    1.1
1874  42327.000         5.3299         0.1342        -5.1316   2  11   0.0969   0.1157   0.2258  -0.0306   0.0572  -0.0357   0.00    1.1
1874  42327.200         5.3342         0.1610        -5.1041   2  11   0.0954   0.1139   0.2222  -0.0301   0.0562  -0.0351   0.20    1.1
1874  42327.400         5.3399         0.1882        -5.0845   2  11   0.0939   0.1122   0.2188  -0.0297   0.0554  -0.0346   0.40    1.1
1874  42327.600         5.3405         0.2131        -5.0595   2  11   0.0925   0.1105   0.2156  -0.0292   0.0545  -0.0341   0.60    1.1
1874  42327.800         5.3414         0.2384        -5.0424   2  11   0.0912   0.1089   0.2124  -0.0288   0.0537  -0.0336   0.80    1.1
1874  42328.000         5.3353         0.2660        -5.0064   2  11   0.0899   0.1074   0.2095  -0.0284   0.0529  -0.0331   0.00    1.1
1874  42328.200         5.3350         0.2894        -4.9868   2  11   0.0887   0.1059   0.2066  -0.0280   0.0522  -0.0327   0.20    1.1
1874  42328.400         5.3328         0.3158        -4.9543   2  11   0.0876   0.1045   0.2038  -0.0277   0.0515  -0.0322   0.40    1.1
1874  42328.600         5.3321         0.3411        -4.9334   2  11   0.0864   0.1032   0.2012  -0.0273   0.0508  -0.0318   0.60    1.1
1874  42328.800         5.3293         0.3655        -4.9161   2  11   0.0853   0.1019   0.1987  -0.0270   0.0501  -0.0314   0.80    1.2
1874  42329.000         5.3184         0.3873        -4.8996   2  11   0.0843   0.1006   0.1962  -0.0266   0.0495  -0.0310   0.00    1.2
1874  42329.200         5.3105         0.4115        -4.8743   2  11   0.0833   0.0994   0.1938  -0.0263   0.0489  -0.0307   0.20    1.2
1874  42329.400         5.3046         0.4366        -4.8486   2  11   0.0823   0.0983   0.1916  -0.0260   0.0483  -0.0303   0.40    1.2
1874  42329.600         5.2989         0.4583        -4.8400   2  11   0.0814   0.0972   0.1894  -0.0257   0.0477  -0.0300   0.60    1.2
1874  42329.800         5.2926         0.4808        -4.8250   2  11   0.0805   0.0961   0.1872  -0.0254   0.0471  -0.0296   0.80    1.2
1874  42330.000         5.2850         0.5106        -4.8126   2  11   0.0796   0.0950   0.1852  -0.0252   0.0466  -0.0293   0.00    1.2
1874  42330.200         5.2731         0.5341        -4.7931   2  11   0.0788   0.0940   0.1832  -0.0249   0.0461  -0.0290   0.20    1.2
1874  42330.400         5.2650         0.5587        -4.7727   2  11   0.0779   0.0930   0.1812  -0.0246   0.0455  -0.0287   0.40    1.2
1874  42330.600         5.2582         0.5844        -4.7622   2  11   0.0771   0.0921   0.1793  -0.0244   0.0451  -0.0284   0.60    1.2
1874  42330.800         5.2502         0.6051        -4.7432   2  11   0.0764   0.0911   0.1775  -0.0241   0.0446  -0.0281   0.80    1.2
1874  42331.000         5.2405         0.6249        -4.7450   2  11   0.0756   0.0902   0.1758  -0.0239   0.0441  -0.0278   0.00    1.3
1874  42331.200         5.2299         0.6534        -4.7243   2  11   0.0749   0.0894   0.1740  -0.0237   0.0436  -0.0276   0.20    1.3
1874  42331.400         5.2195         0.6785        -4.7108   2  11   0.0742   0.0885   0.1724  -0.0235   0.0432  -0.0273   0.40    1.3
1874  42331.600         5.2146         0.7024        -4.7023   2  11   0.0735   0.0877   0.1707  -0.0232   0.0428  -0.0271   0.60    1.3
1874  42331.800         5.2046         0.7222        -4.6948   2  11   0.0728   0.0869   0.1692  -0.0230   0.0424  -0.0268   0.80    1.3
1874  42332.000         5.1968         0.7434        -4.7011   2  11   0.0722   0.0861   0.1676  -0.0228   0.0419  -0.0266   0.00    1.3
1874  42332.200         5.1828         0.7616        -4.6903   2  11   0.0715   0.0854   0.1661  -0.0226   0.0415  -0.0263   0.20    1.3
1874  42332.400         5.1741         0.7817        -4.6959   2  11   0.0709   0.0846   0.1647  -0.0224   0.0412  -0.0261   0.40    1.4
1874  42332.600         5.1571         0.7963        -4.7119   2  11   0.0703   0.0839   0.1632  -0.0222   0.0408  -0.0259   0.60    1.4
1874  42332.800         5.1450         0.8143        -4.7215   2  11   0.0698   0.0832   0.1619  -0.0221   0.0404  -0.0257   0.80    1.4
1874  42333.000         5.1310         0.8283        -4.7334   2  11   0.0692   0.0825   0.1605  -0.0219   0.0400  -0.0255   0.00    1.4
1874  42333.200         5.1172         0.8404        -4.7441   2  11   0.0686   0.0819   0.1592  -0.0217   0.0397  -0.0253   0.20    1.4
1874  42333.400         5.1003         0.8505        -4.7661   2  11   0.0681   0.0812   0.1579  -0.0215   0.0393  -0.0251   0.40    1.4
1874  42333.600         5.0868         0.8637        -4.7799   2  11   0.0675   0.0806   0.1566  -0.0214   0.0390  -0.0249   0.60    1.4
1874  42333.800         5.0722         0.8736        -4.7896   2  11   0.0670   0.0799   0.1554  -0.0212   0.0387  -0.0247   0.80    1.4
1874  42334.000         5.0615         0.8801        -4.8004   2  11   0.0665   0.0793   0.1542  -0.0210   0.0383  -0.0245   0.00    1.4
1874  42334.200         5.0485         0.8857        -4.8115   2  11   0.0660   0.0787   0.1530  -0.0209   0.0380  -0.0243   0.20    1.4
1874  42334.400         5.0392         0.8922        -4.8208   2  11   0.0655   0.0782   0.1518  -0.0207   0.0377  -0.0241   0.40    1.4
1874  42334.600         5.0297         0.8965        -4.8303   2  11   0.0651   0.0776   0.1507  -0.0206   0.0374  -0.0239   0.60    1.4
1874  42334.800         5.0216         0.9003        -4.8352   2  11   0.0646   0.0770   0.1496  -0.0204   0.0371  -0.0238   0.80    1.4
1874  42335.000         5.0091         0.9027        -4.8399   2  11   0.0641   0.0765   0.1485  -0.0203   0.0368  -0.0236   0.00    1.4
1874  42335.200         4.9986         0.9062        -4.8458   2  11   0.0637   0.0759   0.1475  -0.0201   0.0365  -0.0234   0.20    1.4
1874  42335.400         4.9894         0.9068        -4.8623   2  11   0.0633   0.0754   0.1464  -0.0200   0.0362  -0.0233   0.40    1.4
1874  42335.600         4.9830         0.9042        -4.8707   2  11   0.0628   0.0749   0.1454  -0.0199   0.0359  -0.0231   0.60    1.4
1874  42335.800         4.9731         0.9049        -4.8752   2  11   0.0624   0.0744   0.1444  -0.0197   0.0357  -0.0230   0.80    1.4
1874  42336.000         4.9642         0.9065        -4.8855   2  11   0.0620   0.0739   0.1434  -0.0196   0.0354  -0.0228   0.00    1.4
1874  42336.200         4.9539         0.9035        -4.8967   2  11   0.0616   0.0734   0.1425  -0.0195   0.0351  -0.0227   0.20    1.4
1874  42336.400         4.9510         0.9005        -4.9104   2  11   0.0612   0.0730   0.1415  -0.0194   0.0349  -0.0225   0.40    1.4
1874  42336.600         4.9448         0.8966        -4.9205   2  11   0.0608   0.0725   0.1406  -0.0192   0.0346  -0.0224   0.60    1.4
1874  42336.800         4.9351         0.8913        -4.9299   2  11   0.0605   0.0720   0.1397  -0.0191   0.0344  -0.0222   0.80    1.5
1874  42337.000         4.9275         0.8857        -4.9411   2  11   0.0601   0.0716   0.1388  -0.0190   0.0341  -0.0221   0.00    1.4
1874  42337.200         4.9177         0.8814        -4.9555   2  11   0.0597   0.0712   0.1379  -0.0189   0.0339  -0.0220   0.20    1.4
1874  42337.400         4.9123         0.8763        -4.9633   2  11   0.0594   0.0707   0.1370  -0.0188   0.0336  -0.0218   0.40    1.5
1874  42337.600         4.9048         0.8719        -4.9643   2  11   0.0590   0.0703   0.1362  -0.0187   0.0334  -0.0217   0.60    1.5
1874  42337.800         4.8979         0.8685        -4.9719   2  11   0.0587   0.0699   0.1354  -0.0186   0.0332  -0.0216   0.80    1.5
1874  42338.000         4.8964         0.8610        -4.9804   2  11   0.0583   0.0695   0.1345  -0.0185   0.0329  -0.0214   0.00    1.4
1874  42338.200         4.8896         0.8547        -4.9978   2  11   0.0580   0.0691   0.1337  -0.0183   0.0327  -0.0213   0.20    1.5
1874  42338.400         4.8838         0.8486        -5.0115   2  11   0.0577   0.0687   0.1329  -0.0182   0.0325  -0.0212   0.40    1.5
1874  42338.600         4.8753         0.8418        -5.0179   2  11   0.0573   0.0683   0.1322  -0.0181   0.0322  -0.0211   0.60    1.5
1874  42338.800         4.8733         0.8335        -5.0239   2  11   0.0570   0.0679   0.1314  -0.0180   0.0320  -0.0209   0.80    1.5
1874  42339.000         4.8659         0.8314        -5.0179   2  11   0.0567   0.0675   0.1306  -0.0179   0.0318  -0.0208   0.00    1.5
1874  42339.200         4.8581         0.8230        -5.0333   2  11   0.0564   0.0672   0.1299  -0.0178   0.0316  -0.0207   0.20    1.5
1874  42339.400         4.8553         0.8183        -5.0320   2  11   0.0561   0.0668   0.1292  -0.0178   0.0314  -0.0206   0.40    1.5
1874  42339.600         4.8453         0.8090        -5.0356   2  11   0.0558   0.0664   0.1284  -0.0177   0.0312  -0.0205   0.60    1.5
1874  42339.800         4.8392         0.8052        -5.0350   2  11   0.0555   0.0661   0.1277  -0.0176   0.0310  -0.0204   0.80    1.5
1874  42340.000         4.8336         0.8021        -5.0388   2  11   0.0552   0.0657   0.1270  -0.0175   0.0308  -0.0203   0.00    1.5
1874  42340.200         4.8312         0.7960        -5.0483   2  11   0.0549   0.0654   0.1263  -0.0174   0.0306  -0.0202   0.20    1.5
1874  42340.400         4.8267         0.7920        -5.0497   2  11   0.0547   0.0651   0.1257  -0.0173   0.0304  -0.0201   0.40    1.5
1874  42340.600         4.8206         0.7866        -5.0581   2  11   0.0544   0.0647   0.1250  -0.0172   0.0302  -0.0199   0.60    1.5
1874  42340.800         4.8187         0.7863        -5.0531   2  11   0.0541   0.0644   0.1243  -0.0171   0.0300  -0.0198   0.80    1.5
1874  42341.000         4.8167         0.7845        -5.0484   2  11   0.0538   0.0641   0.1237  -0.0170   0.0298  -0.0197   0.00    1.5
1874  42341.200         4.8086         0.7814        -5.0440   2  11   0.0536   0.0638   0.1230  -0.0170   0.0296  -0.0196   0.20    1.5
1874  42341.400         4.8033         0.7773        -5.0490   2  11   0.0533   0.0634   0.1224  -0.0169   0.0294  -0.0195   0.40    1.5
1874  42341.600         4.7998         0.7721        -5.0422   2  11   0.0531   0.0631   0.1218  -0.0168   0.0293  -0.0194   0.60    1.5
1874  42341.800         4.7948         0.7657        -5.0499   2  11   0.0528   0.0628   0.1212  -0.0167   0.0291  -0.0194   0.80    1.5
1874  42342.000         4.7919         0.7632        -5.0512   2  11   0.0526   0.0625   0.1206  -0.0166   0.0289  -0.0193   0.00    1.5
1874  42342.200         4.7871         0.7580        -5.0512   2  11   0.0523   0.0622   0.1200  -0.0166   0.0287  -0.0192   0.20    1.5
1874  42342.400         4.7814         0.7524        -5.0640   2  11   0.0521   0.0619   0.1194  -0.0165   0.0285  -0.0191   0.40    1.5
1874  42342.600         4.7773         0.7507        -5.0551   2  11   0.0518   0.0617   0.1188  -0.0164   0.0284  -0.0190   0.60    1.5
1874  42342.800         4.7704         0.7442        -5.0640   2  11   0.0516   0.0614   0.1182  -0.0163   0.0282  -0.0189   0.80    1.5
1874  42343.000         4.7669         0.7382        -5.0602   2  11   0.0514   0.0611   0.1176  -0.0163   0.0280  -0.0188   0.00    1.5
1874  42343.200         4.7645         0.7346        -5.0632   2  11   0.0511   0.0608   0.1171  -0.0162   0.0279  -0.0187   0.20    1.5
1874  42343.400         4.7585         0.7327        -5.0670   2  11   0.0509   0.0605   0.1165  -0.0161   0.0277  -0.0186   0.40    1.5
1874  42343.600         4.7552         0.7290        -5.0647   2  11   0.0507   0.0603   0.1160  -0.0161   0.0275  -0.0185   0.60    1.5
1874  42343.800         4.7525         0.7274        -5.0704   2  11   0.0505   0.0600   0.1155  -0.0160   0.0274  -0.0185   0.80    1.5
1874  42344.000         4.7450         0.7257        -5.0729   2  11   0.0503   0.0598   0.1149  -0.0159   0.0272  -0.0184   0.00    1.5
1874  42344.200         4.7440         0.7286        -5.0759   2  11   0.0500   0.0595   0.1144  -0.0158   0.0271  -0.0183   0.20    1.5
1874  42344.400         4.7389         0.7255        -5.0779   2  11   0.0498   0.0592   0.1139  -0.0158   0.0269  -0.0182   0.40    1.5
1874  42344.600         4.7345         0.7224        -5.0867   2  11   0.0496   0.0590   0.1133  -0.0157   0.0267  -0.0181   0.60    1.5
1874  42344.800         4.7318         0.7266        -5.0763   2  11   0.0494   0.0587   0.1128  -0.0157   0.0266  -0.0181   0.80    1.5
1874  42345.000         4.7277         0.7271        -5.0694   2  11   0.0492   0.0585   0.1123  -0.0156   0.0264  -0.0180   0.00    1.5
1874  42345.200         4.7260         0.7258        -5.0692   2  11   0.0490   0.0582   0.1118  -0.0155   0.0263  -0.0179   0.20    1.5
1874  42345.400         4.7245         0.7243        -5.0793   2  11   0.0488   0.0580   0.1113  -0.0155   0.0261  -0.0178   0.40    1.5
1874  42345.600         4.7203         0.7286        -5.0671   2  11   0.0486   0.0578   0.1109  -0.0154   0.0260  -0.0178   0.60    1.5
1874  42345.800         4.7206         0.7257        -5.0714   2  11   0.0484   0.0575   0.1104  -0.0153   0.0258  -0.0177   0.80    1.4
1874  42346.000         4.7144         0.7277        -5.0679   2  11   0.0482   0.0573   0.1099  -0.0153   0.0257  -0.0176   0.00    1.4
1874  42346.200         4.7127         0.7257        -5.0734   2  11   0.0480   0.0571   0.1094  -0.0152   0.0255  -0.0175   0.20    1.4
1874  42346.400         4.7108         0.7245        -5.0744   2  11   0.0479   0.0568   0.1090  -0.0152   0.0254  -0.0175   0.40    1.4
1874  42346.600         4.7057         0.7235        -5.0727   2  11   0.0477   0.0566   0.1085  -0.0151   0.0252  -0.0174   0.60    1.4
1874  42346.800         4.7048         0.7253        -5.0816   2  11   0.0475   0.0564   0.1080  -0.0150   0.0251  -0.0173   0.80    1.4
1874  42347.000         4.7000         0.7244        -5.0741   2  11   0.0473   0.0562   0.1076  -0.0150   0.0250  -0.0172   0.00    1.4
1874  42347.200         4.6990         0.7261        -5.0805   2  11   0.0471   0.0560   0.1071  -0.0149   0.0248  -0.0172   0.20    1.4
1874  42347.400         4.6982         0.7238        -5.0804   2  11   0.0470   0.0558   0.1067  -0.0149   0.0247  -0.0171   0.40    1.4
1874  42347.600         4.6988         0.7264        -5.0801   2  11   0.0468   0.0555   0.1063  -0.0148   0.0245  -0.0170   0.60    1.4
1874  42347.800         4.6953         0.7269        -5.0822   2  11   0.0466   0.0553   0.1058  -0.0148   0.0244  -0.0170   0.80    1.4
1874  42348.000         4.6957         0.7309        -5.0771   2  11   0.0464   0.0551   0.1054  -0.0147   0.0243  -0.0169   0.00    1.4
1874  42348.200         4.6929         0.7338        -5.0803   2  11   0.0463   0.0549   0.1050  -0.0147   0.0241  -0.0168   0.20    1.4
1874  42348.400         4.6907         0.7364        -5.0804   2  11   0.0461   0.0547   0.1045  -0.0146   0.0240  -0.0168   0.40    1.4
1874  42348.600         4.6883         0.7384        -5.0845   2  11   0.0459   0.0545   0.1041  -0.0146   0.0239  -0.0167   0.60    1.4
1874  42348.800         4.6858         0.7392        -5.0834   2  11   0.0458   0.0543   0.1037  -0.0145   0.0237  -0.0166   0.80    1.4
1874  42349.000         4.6835         0.7440        -5.0851   2  11   0.0456   0.0541   0.1033  -0.0145   0.0236  -0.0166   0.00    1.4
1874  42349.200         4.6846         0.7470        -5.0848   2  11   0.0455   0.0539   0.1029  -0.0144   0.0235  -0.0165   0.20    1.4
1874  42349.400         4.6845         0.7518        -5.0828   2  11   0.0453   0.0537   0.1025  -0.0144   0.0233  -0.0165   0.40    1.4
1874  42349.600         4.6843         0.7561        -5.0838   2  11   0.0451   0.0535   0.1021  -0.0143   0.0232  -0.0164   0.60    1.4
1874  42349.800         4.6825         0.7588        -5.0892   2  11   0.0450   0.0534   0.1017  -0.0143   0.0231  -0.0163   0.80    1.4
1874  42350.000         4.6843         0.7610        -5.0948   2  11   0.0448   0.0532   0.1013  -0.0142   0.0230  -0.0163   0.00    1.4
1874  42350.200         4.6854         0.7691        -5.0917   2  11   0.0447   0.0530   0.1009  -0.0142   0.0228  -0.0162   0.20    1.3
1874  42350.400         4.6850         0.7713        -5.0944   2  11   0.0445   0.0528   0.1006  -0.0141   0.0227  -0.0162   0.40    1.3
1874  42350.600         4.6848         0.7733        -5.0955   2  11   0.0444   0.0526   0.1002  -0.0141   0.0226  -0.0161   0.60    1.3
1874  42350.800         4.6872         0.7752        -5.0978   2  11   0.0442   0.0524   0.0998  -0.0140   0.0225  -0.0160   0.80    1.3
1874  42351.000         4.6882         0.7803        -5.1006   2  11   0.0441   0.0523   0.0994  -0.0140   0.0223  -0.0160   0.00    1.3
1874  42351.200         4.6902         0.7853        -5.0972   2  11   0.0439   0.0521   0.0991  -0.0139   0.0222  -0.0159   0.20    1.3
1874  42351.400         4.6941         0.7869        -5.1051   2  11   0.0438   0.0519   0.0987  -0.0139   0.0221  -0.0159   0.40    1.3
1874  42351.600         4.6894         0.7884        -5.1057   2  11   0.0437   0.0517   0.0984  -0.0138   0.0220  -0.0158   0.60    1.3
1874  42351.800         4.6901         0.7943        -5.0975   2  11   0.0435   0.0516   0.0980  -0.0138   0.0219  -0.0158   0.80    1.3
1874  42352.000         4.6907         0.7958        -5.1114   2  11   0.0434   0.0514   0.0976  -0.0138   0.0217  -0.0157   0.00    1.3
1874  42352.200         4.6932         0.7963        -5.1069   2  11   0.0432   0.0512   0.0973  -0.0137   0.0216  -0.0156   0.20    1.3
1874  42352.400         4.6955         0.7982        -5.1216   2  11   0.0431   0.0511   0.0969  -0.0137   0.0215  -0.0156   0.40    1.3
1874  42352.600         4.6976         0.8019        -5.1170   2  11   0.0430   0.0509   0.0966  -0.0136   0.0214  -0.0155   0.60    1.3
1874  42352.800         4.6990         0.8042        -5.1177   2  11   0.0429   0.0507   0.0963  -0.0136   0.0213  -0.0155   0.80    1.3
1874  42353.000         4.6988         0.8058        -5.1209   2  11   0.0427   0.0506   0.0959  -0.0135   0.0211  -0.0154   0.00    1.3
1874  42353.200         4.6970         0.8045        -5.1271   2  11   0.0426   0.0504   0.0956  -0.0135   0.0210  -0.0154   0.20    1.3
1874  42353.400         4.7020         0.8089        -5.1392   2  11   0.0425   0.0503   0.0952  -0.0135   0.0209  -0.0153   0.40    1.3
1874  42353.600         4.7053         0.8084        -5.1397   2  11   0.0423   0.0501   0.0949  -0.0134   0.0208  -0.0153   0.60    1.3
1874  42353.800         4.7033         0.8111        -5.1499   2  11   0.0422   0.0499   0.0946  -0.0134   0.0207  -0.0152   0.80    1.2
1874  42354.000         4.7026         0.8107        -5.1617   2  11   0.0421   0.0498   0.0942  -0.0133   0.0206  -0.0152   0.00    1.2
1874  42354.200         4.7065         0.8132        -5.1621   2  11   0.0419   0.0496   0.0939  -0.0133   0.0205  -0.0151   0.20    1.2
1874  42354.400         4.7048         0.8142        -5.1720   2  11   0.0418   0.0495   0.0936  -0.0133   0.0203  -0.0151   0.40    1.2
1874  42354.600         4.7042         0.8137        -5.1836   2  11   0.0417   0.0493   0.0933  -0.0132   0.0202  -0.0150   0.60    1.2
1874  42354.800         4.7068         0.8153        -5.1890   2  11   0.0416   0.0492   0.0930  -0.0132   0.0201  -0.0150   0.80    1.2
1874  42355.000         4.7098         0.8181        -5.2029   2  11   0.0415   0.0490   0.0926  -0.0131   0.0200  -0.0149   0.00    1.2
1874  42355.200         4.7072         0.8179        -5.2182   2  11   0.0413   0.0489   0.0923  -0.0131   0.0199  -0.0149   0.20    1.2
1874  42355.400         4.7054         0.8190        -5.2194   2  11   0.0412   0.0487   0.0920  -0.0131   0.0198  -0.0148   0.40    1.2
1874  42355.600         4.7078         0.8207        -5.2266   2  11   0.0411   0.0486   0.0917  -0.0130   0.0197  -0.0148   0.60    1.2
1874  42355.800         4.7101         0.8238        -5.2399   2  11   0.0410   0.0485   0.0914  -0.0130   0.0196  -0.0147   0.80    1.2
1874  42356.000         4.7083         0.8266        -5.2445   2  11   0.0409   0.0483   0.0911  -0.0130   0.0195  -0.0147   0.00    1.2
1874  42356.200         4.7105         0.8281        -5.2574   2  11   0.0407   0.0482   0.0908  -0.0129   0.0194  -0.0146   0.20    1.2
1874  42356.400         4.7080         0.8273        -5.2668   2  11   0.0406   0.0480   0.0905  -0.0129   0.0192  -0.0146   0.40    1.2
1874  42356.600         4.7120         0.8311        -5.2758   2  11   0.0405   0.0479   0.0902  -0.0129   0.0191  -0.0145   0.60    1.2
1874  42356.800         4.7118         0.8316        -5.2789   2  11   0.0404   0.0478   0.0899  -0.0128   0.0190  -0.0145   0.80    1.2
1874  42357.000         4.7140         0.8344        -5.2859   2  11   0.0403   0.0476   0.0896  -0.0128   0.0189  -0.0145   0.00    1.1
1874  42357.200         4.7126         0.8365        -5.2960   2  11   0.0402   0.0475   0.0893  -0.0128   0.0188  -0.0144   0.20    1.1
1874  42357.400         4.7129         0.8371        -5.3072   2  11   0.0401   0.0474   0.0891  -0.0127   0.0187  -0.0144   0.40    1.1
1874  42357.600         4.7119         0.8400        -5.3146   2  11   0.0400   0.0472   0.0888  -0.0127   0.0186  -0.0143   0.60    1.1
1874  42357.800         4.7175         0.8426        -5.3202   2  11   0.0399   0.0471   0.0885  -0.0127   0.0185  -0.0143   0.80    1.1
1874  42358.000         4.7161         0.8463        -5.3299   2  11   0.0398   0.0470   0.0882  -0.0126   0.0184  -0.0142   0.00    1.1
1874  42358.200         4.7179         0.8476        -5.3394   2  11   0.0397   0.0468   0.0879  -0.0126   0.0183  -0.0142   0.20    1.1
1874  42358.400         4.7154         0.8506        -5.3463   2  11   0.0395   0.0467   0.0877  -0.0126   0.0182  -0.0141   0.40    1.1
1874  42358.600         4.7197         0.8499        -5.3566   2  11   0.0394   0.0466   0.0874  -0.0125   0.0181  -0.0141   0.60    1.1
1874  42358.800         4.7208         0.8563        -5.3662   2  11   0.0393   0.0465   0.0871  -0.0125   0.0180  -0.0141   0.80    1.1
1874  42359.000         4.7224         0.8600        -5.3600   2  11   0.0392   0.0463   0.0868  -0.0125   0.0179  -0.0140   0.00    1.1
1874  42359.200         4.7205         0.8615        -5.3701   2  11   0.0391   0.0462   0.0866  -0.0124   0.0178  -0.0140   0.20    1.1
1874  42359.400         4.7237         0.8654        -5.3649   2  11   0.0390   0.0461   0.0863  -0.0124   0.0177  -0.0139   0.40    1.1
1874  42359.600         4.7259         0.8671        -5.3744   2  11   0.0389   0.0460   0.0860  -0.0124   0.0176  -0.0139   0.60    1.1
1874  42359.800         4.7274         0.8741        -5.3840   2  11   0.0388   0.0458   0.0858  -0.0123   0.0175  -0.0139   0.80    1.1
1874  42360.000         4.7275         0.8793        -5.3785   2  11   0.0387   0.0457   0.0855  -0.0123   0.0174  -0.0138   0.00    1.1
1874  42360.200         4.7313         0.8812        -5.3928   2  11   0.0386   0.0456   0.0852  -0.0123   0.0173  -0.0138   0.20    1.1
1874  42360.400         4.7347         0.8854        -5.3947   2  11   0.0385   0.0455   0.0850  -0.0122   0.0172  -0.0137   0.40    1.1
1874  42360.600         4.7337         0.8862        -5.3975   2  11   0.0385   0.0453   0.0847  -0.0122   0.0171  -0.0137   0.60    1.1
1874  42360.800         4.7373         0.8919        -5.4115   2  11   0.0384   0.0452   0.0845  -0.0122   0.0170  -0.0137   0.80    1.1
1874  42361.000         4.7335         0.8936        -5.4127   2  11   0.0383   0.0451   0.0842  -0.0121   0.0169  -0.0136   0.00    1.1
1874  42361.200         4.7394         0.8986        -5.4181   2  11   0.0382   0.0450   0.0840  -0.0121   0.0168  -0.0136   0.20    1.1
1874  42361.400         4.7385         0.9036        -5.4236   2  11   0.0381   0.0449   0.0837  -0.0121   0.0167  -0.0135   0.40    1.0
1874  42361.600         4.7427         0.9054        -5.4335   2  11   0.0380   0.0448   0.0835  -0.0121   0.0166  -0.0135   0.60    1.0
1874  42361.800         4.7427         0.9096        -5.4362   2  11   0.0379   0.0447   0.0832  -0.0120   0.0165  -0.0135   0.80    1.0
1874  42362.000         4.7454         0.9142        -5.4385   2  11   0.0378   0.0445   0.0830  -0.0120   0.0164  -0.0134   0.00    1.0
1874  42362.200         4.7474         0.9171        -5.4378   2  11   0.0377   0.0444   0.0827  -0.0120   0.0163  -0.0134   0.20    1.0
1874  42362.400         4.7473         0.9221        -5.4470   2  11   0.0376   0.0443   0.0825  -0.0119   0.0162  -0.0133   0.40    1.0
1874  42362.600         4.7465         0.9237        -5.4518   2  11   0.0375   0.0442   0.0823  -0.0119   0.0161  -0.0133   0.60    1.0
1874  42362.800         4.7539         0.9282        -5.4628   2  11   0.0374   0.0441   0.0820  -0.0119   0.0160  -0.0133   0.80    1.0
1874  42363.000         4.7550         0.9302        -5.4738   2  11   0.0373   0.0440   0.0818  -0.0119   0.0159  -0.0132   0.00    1.0
1874  42363.200         4.7534         0.9304        -5.4835   2  11   0.0373   0.0439   0.0815  -0.0118   0.0158  -0.0132   0.20    1.0
1874  42363.400         4.7516         0.9385        -5.4870   2  11   0.0372   0.0438   0.0813  -0.0118   0.0157  -0.0132   0.40    1.0
1874  42363.600         4.7503         0.9390        -5.4936   2  11   0.0371   0.0437   0.0811  -0.0118   0.0156  -0.0131   0.60    1.0
1874  42363.800         4.7512         0.9399        -5.5023   2  11   0.0370   0.0436   0.0809  -0.0118   0.0155  -0.0131   0.80    1.0
1874  42364.000         4.7512         0.9457        -5.5052   2  11   0.0369   0.0435   0.0806  -0.0117   0.0154  -0.0130   0.00    1.0
1874  42364.200         4.7502         0.9445        -5.5085   2  11   0.0368   0.0434   0.0804  -0.0117   0.0153  -0.0130   0.20    1.0
1874  42364.400         4.7519         0.9493        -5.5112   2  11   0.0367   0.0432   0.0801  -0.0117   0.0152  -0.0130   0.40    1.0
1874  42364.600         4.7474         0.9512        -5.5200   2  11   0.0367   0.0431   0.0799  -0.0116   0.0152  -0.0129   0.60    1.0
1874  42364.800         4.7480         0.9506        -5.5363   2  11   0.0366   0.0430   0.0797  -0.0116   0.0151  -0.0129   0.80    1.0
1874  42365.000         4.7501         0.9502        -5.5517   2  11   0.0365   0.0429   0.0795  -0.0116   0.0150  -0.0129   0.00    1.0
1874  42365.200         4.7465         0.9492        -5.5581   2  11   0.0364   0.0428   0.0792  -0.0116   0.0149  -0.0128   0.20    1.0
1874  42365.400         4.7437         0.9515        -5.5668   2  11   0.0363   0.0427   0.0790  -0.0115   0.0148  -0.0128   0.40    1.0
1874  42365.600         4.7449         0.9515        -5.5775   2  11   0.0363   0.0426   0.0788  -0.0115   0.0147  -0.0128   0.60    1.0
1874  42365.800         4.7454         0.9523        -5.5860   2  11   0.0362   0.0425   0.0786  -0.0115   0.0146  -0.0127   0.80    1.0
1874  42366.000         4.7397         0.9540        -5.5893   2  11   0.0361   0.0424   0.0784  -0.0115   0.0145  -0.0127   0.00    1.0
1874  42366.200         4.7387         0.9534        -5.5967   2  11   0.0360   0.0423   0.0781  -0.0114   0.0144  -0.0127   0.20    1.0
1874  42366.400         4.7378         0.9527        -5.6046   2  11   0.0359   0.0422   0.0779  -0.0114   0.0143  -0.0126   0.40    1.0
1874  42366.600         4.7362         0.9521        -5.6117   2  11   0.0359   0.0422   0.0777  -0.0114   0.0142  -0.0126   0.60    1.0
1874  42366.800         4.7324         0.9509        -5.6231   2  11   0.0358   0.0421   0.0775  -0.0114   0.0141  -0.0126   0.80    1.0
1874  42367.000         4.7292         0.9514        -5.6265   2  11   0.0357   0.0420   0.0773  -0.0113   0.0140  -0.0125   0.00    1.0
1874  42367.200         4.7262         0.9523        -5.6415   2  11   0.0356   0.0419   0.0771  -0.0113   0.0139  -0.0125   0.20    1.0
1874  42367.400         4.7248         0.9523        -5.6473   2  11   0.0356   0.0418   0.0769  -0.0113   0.0138  -0.0125   0.40    1.0
1874  42367.600         4.7204         0.9526        -5.6545   2  11   0.0355   0.0417   0.0767  -0.0113   0.0137  -0.0124   0.60    1.0
1874  42367.800         4.7144         0.9533        -5.6633   2  11   0.0354   0.0416   0.0765  -0.0113   0.0137  -0.0124   0.80    1.0
1874  42368.000         4.7112         0.9530        -5.6605   2  11   0.0353   0.0415   0.0763  -0.0112   0.0136  -0.0124   0.00    1.0
1874  42368.200         4.7095         0.9527        -5.6716   2  11   0.0353   0.0414   0.0760  -0.0112   0.0135  -0.0123   0.20    1.0
1874  42368.400         4.7024         0.9499        -5.6864   2  11   0.0352   0.0413   0.0759  -0.0112   0.0134  -0.0123   0.40    1.0
1874  42368.600         4.7001         0.9498        -5.6942   2  11   0.0351   0.0412   0.0757  -0.0112   0.0133  -0.0123   0.60    1.0
1874  42368.800         4.6949         0.9476        -5.7054   2  11   0.0350   0.0411   0.0755  -0.0111   0.0132  -0.0122   0.80    1.0
1874  42369.000         4.6909         0.9475        -5.7044   2  11   0.0350   0.0410   0.0752  -0.0111   0.0131  -0.0122   0.00    1.0
1874  42369.200         4.6804         0.9476        -5.7091   2  11   0.0349   0.0409   0.0750  -0.0111   0.0130  -0.0122   0.20    1.0
1874  42369.400         4.6766         0.9471        -5.7013   2  11   0.0348   0.0409   0.0749  -0.0111   0.0129  -0.0121   0.40    1.0
1874  42369.600         4.6684         0.9478        -5.7101   2  11   0.0347   0.0408   0.0747  -0.0111   0.0128  -0.0121   0.60    1.1
1874  42369.800         4.6619         0.9474        -5.7101   2  11   0.0347   0.0407   0.0745  -0.0110   0.0127  -0.0121   0.80    1.1
1874  42370.000         4.6547         0.9430        -5.7208   2  11   0.0346   0.0406   0.0743  -0.0110   0.0126  -0.0121   0.00    1.1
1874  42370.200         4.6501         0.9437        -5.7192   2  11   0.0345   0.0405   0.0741  -0.0110   0.0125  -0.0120   0.20    1.1
1874  42370.400         4.6445         0.9411        -5.7258   2  11   0.0345   0.0404   0.0739  -0.0110   0.0125  -0.0120   0.40    1.1
1874  42370.600         4.6390         0.9382        -5.7243   2  11   0.0344   0.0403   0.0737  -0.0109   0.0124  -0.0120   0.60    1.1
1874  42370.800         4.6309         0.9378        -5.7330   2  11   0.0343   0.0403   0.0735  -0.0109   0.0123  -0.0119   0.80    1.1
1874  42371.000         4.6255         0.9344        -5.7315   2  11   0.0343   0.0402   0.0733  -0.0109   0.0122  -0.0119   0.00    1.1
1874  42371.200         4.6206         0.9330        -5.7302   2  11   0.0342   0.0401   0.0731  -0.0109   0.0121  -0.0119   0.20    1.1
1874  42371.400         4.6120         0.9297        -5.7312   2  11   0.0341   0.0400   0.0729  -0.0109   0.0120  -0.0118   0.40    1.1
1874  42371.600         4.6029         0.9293        -5.7297   2  11   0.0341   0.0399   0.0727  -0.0108   0.0119  -0.0118   0.60    1.1
1874  42371.800         4.5978         0.9286        -5.7218   2  11   0.0340   0.0398   0.0726  -0.0108   0.0118  -0.0118   0.80    1.1
1874  42372.000         4.5906         0.9245        -5.7270   2  11   0.0339   0.0398   0.0724  -0.0108   0.0117  -0.0118   0.00    1.1
1874  42372.200         4.5828         0.9220        -5.7279   2  11   0.0339   0.0397   0.0722  -0.0108   0.0116  -0.0117   0.20    1.1
1874  42372.400         4.5769         0.9225        -5.7250   2  11   0.0338   0.0396   0.0720  -0.0108   0.0115  -0.0117   0.40    1.1
1874  42372.600         4.5703         0.9175        -5.7323   2  11   0.0337   0.0395   0.0718  -0.0107   0.0115  -0.0117   0.60    1.1
1874  42372.800         4.5595         0.9133        -5.7389   2  11   0.0337   0.0394   0.0717  -0.0107   0.0114  -0.0116   0.80    1.1
1874  42373.000         4.5532         0.9120        -5.7417   2  11   0.0336   0.0393   0.0715  -0.0107   0.0113  -0.0116   0.00    1.1
1874  42373.200         4.5416         0.9078        -5.7444   2  11   0.0335   0.0393   0.0713  -0.0107   0.0112  -0.0116   0.20    1.1
1874  42373.400         4.5370         0.9066        -5.7382   2  11   0.0335   0.0392   0.0711  -0.0107   0.0111  -0.0116   0.40    1.1
1874  42373.600         4.5287         0.9038        -5.7374   2  11   0.0334   0.0391   0.0709  -0.0106   0.0110  -0.0115   0.60    1.1
1874  42373.800         4.5200         0.9006        -5.7456   2  11   0.0334   0.0390   0.0708  -0.0106   0.0109  -0.0115   0.80    1.1
1874  42374.000         4.5125         0.8971        -5.7403   2  11   0.0333   0.0390   0.0706  -0.0106   0.0108  -0.0115   0.00    1.1
1874  42374.200         4.5037         0.8949        -5.7457   2  11   0.0332   0.0389   0.0704  -0.0106   0.0107  -0.0114   0.20    1.1
1874  42374.400         4.4988         0.8895        -5.7460   2  11   0.0332   0.0388   0.0702  -0.0106   0.0106  -0.0114   0.40    1.2
1874  42374.600         4.4915         0.8867        -5.7436   2  11   0.0331   0.0387   0.0701  -0.0105   0.0105  -0.0114   0.60    1.2
1874  42374.800         4.4866         0.8846        -5.7433   2  11   0.0330   0.0387   0.0699  -0.0105   0.0105  -0.0114   0.80    1.2
1874  42375.000         4.4799         0.8813        -5.7443   2  11   0.0330   0.0386   0.0697  -0.0105   0.0103  -0.0113   0.00    1.2
1874  42375.200         4.4718         0.8770        -5.7491   2  11   0.0329   0.0385   0.0695  -0.0105   0.0102  -0.0113   0.20    1.2
1874  42375.400         4.4680         0.8716        -5.7507   2  11   0.0329   0.0384   0.0694  -0.0105   0.0101  -0.0113   0.40    1.2
1874  42375.600         4.4620         0.8709        -5.7494   2  11   0.0328   0.0384   0.0692  -0.0105   0.0101  -0.0113   0.60    1.2
1874  42375.800         4.4574         0.8664        -5.7552   2  11   0.0327   0.0383   0.0690  -0.0104   0.0100  -0.0112   0.80    1.2
1874  42376.000         4.4488         0.8594        -5.7542   2  11   0.0327   0.0382   0.0688  -0.0104   0.0099  -0.0112   0.00    1.2
1874  42376.200         4.4455         0.8564        -5.7588   2  11   0.0326   0.0381   0.0687  -0.0104   0.0098  -0.0112   0.20    1.2
1874  42376.400         4.4375         0.8544        -5.7677   2  11   0.0326   0.0381   0.0685  -0.0104   0.0097  -0.0112   0.40    1.2
1874  42376.600         4.4342         0.8476        -5.7687   2  11   0.0325   0.0380   0.0684  -0.0104   0.0096  -0.0111   0.60    1.2
1874  42376.800         4.4288         0.8451        -5.7628   2  11   0.0325   0.0379   0.0682  -0.0103   0.0095  -0.0111   0.80    1.2
1874  42377.000         4.4236         0.8421        -5.7742   2  11   0.0324   0.0378   0.0680  -0.0103   0.0094  -0.0111   0.00    1.2
1874  42377.200         4.4143         0.8371        -5.7751   2  11   0.0323   0.0378   0.0679  -0.0103   0.0093  -0.0110   0.20    1.2
1874  42377.400         4.4105         0.8349        -5.7754   2  11   0.0323   0.0377   0.0677  -0.0103   0.0092  -0.0110   0.40    1.2
1874  42377.600         4.4058         0.8323        -5.7828   2  11   0.0322   0.0376   0.0676  -0.0103   0.0091  -0.0110   0.60    1.2
1874  42377.800         4.4022         0.8236        -5.7835   2  11   0.0322   0.0376   0.0674  -0.0103   0.0090  -0.0110   0.80    1.2
1874  42378.000         4.3983         0.8187        -5.7958   2  11   0.0321   0.0375   0.0672  -0.0102   0.0089  -0.0109   0.00    1.2
1874  42378.200         4.3896         0.8129        -5.7916   2  11   0.0320   0.0374   0.0671  -0.0102   0.0088  -0.0109   0.20    1.2
1874  42378.400         4.3868         0.8093        -5.7956   2  11   0.0320   0.0374   0.0669  -0.0102   0.0087  -0.0109   0.40    1.2
1874  42378.600         4.3809         0.8048        -5.7958   2  11   0.0319   0.0373   0.0668  -0.0102   0.0086  -0.0109   0.60    1.2
1874  42378.800         4.3754         0.8021        -5.8020   2  11   0.0319   0.0372   0.0666  -0.0102   0.0085  -0.0108   0.80    1.2
1874  42379.000         4.3664         0.7968        -5.8052   2  11   0.0318   0.0371   0.0664  -0.0102   0.0084  -0.0108   0.00    1.3
1874  42379.200         4.3644         0.7912        -5.8125   2  11   0.0318   0.0371   0.0663  -0.0101   0.0083  -0.0108   0.20    1.3
1874  42379.400         4.3569         0.7881        -5.8126   2  11   0.0317   0.0370   0.0661  -0.0101   0.0082  -0.0108   0.40    1.3
1874  42379.600         4.3497         0.7865        -5.8098   2  11   0.0317   0.0369   0.0660  -0.0101   0.0081  -0.0107   0.60    1.3
1874  42379.800         4.3438         0.7802        -5.8192   2  11   0.0316   0.0369   0.0658  -0.0101   0.0080  -0.0107   0.80    1.3
1874  42380.000         4.3408         0.7734        -5.8167   2  11   0.0316   0.0368   0.0657  -0.0101   0.0079  -0.0107   0.00    1.3
1874  42380.200         4.3349         0.7684        -5.8225   2  11   0.0315   0.0367   0.0655  -0.0101   0.0078  -0.0107   0.20    1.3
1874  42380.400         4.3289         0.7649        -5.8193   2  11   0.0315   0.0367   0.0654  -0.0100   0.0077  -0.0106   0.40    1.3
1874  42380.600         4.3215         0.7595        -5.8206   2  11   0.0314   0.0366   0.0652  -0.0100   0.0076  -0.0106   0.60    1.3
1874  42380.800         4.3181         0.7536        -5.8236   2  11   0.0314   0.0366   0.0651  -0.0100   0.0075  -0.0106   0.80    1.3
1874  42381.000         4.3094         0.7484        -5.8219   2  11   0.0313   0.0365   0.0649  -0.0100   0.0074  -0.0106   0.00    1.3
1874  42381.200         4.3027         0.7431        -5.8222   2  11   0.0312   0.0364   0.0647  -0.0100   0.0073  -0.0106   0.20    1.3
1874  42381.400         4.2955         0.7388        -5.8239   2  11   0.0312   0.0364   0.0646  -0.0100   0.0072  -0.0105   0.40    1.3
1874  42381.600         4.2885         0.7350        -5.8210   2  11   0.0311   0.0363   0.0645  -0.0099   0.0071  -0.0105   0.60    1.3
1874  42381.800         4.2844         0.7294        -5.8265   2  11   0.0311   0.0362   0.0643  -0.0099   0.0070  -0.0105   0.80    1.3
1874  42382.000         4.2775         0.7274        -5.8162   2  11   0.0310   0.0362   0.0642  -0.0099   0.0068  -0.0105   0.00    1.3
1874  42382.100         4.2718         0.7202        -5.8284   2  11   0.0310   0.0361   0.0640  -0.0099   0.0067  -0.0104   0.10    1.3
1874  42382.300         4.2635         0.7179        -5.8238   2  11   0.0309   0.0360   0.0639  -0.0099   0.0066  -0.0104   0.30    1.3
1874  42382.500         4.2602         0.7098        -5.8286   2  11   0.0309   0.0360   0.0637  -0.0099   0.0065  -0.0104   0.50    1.3
1874  42382.700         4.2532         0.7086        -5.8308   2  11   0.0308   0.0359   0.0636  -0.0099   0.0064  -0.0104   0.70    1.3
1874  42382.900         4.2457         0.7023        -5.8312   2  11   0.0308   0.0359   0.0635  -0.0098   0.0064  -0.0103   0.90    1.3
1874  42383.100         4.2367         0.6993        -5.8239   2  11   0.0307   0.0358   0.0633  -0.0098   0.0062  -0.0103   0.10    1.3
1874  42383.300         4.2335         0.6961        -5.8316   2  11   0.0307   0.0357   0.0632  -0.0098   0.0061  -0.0103   0.30    1.3
1874  42383.500         4.2245         0.6938        -5.8237   2  11   0.0306   0.0357   0.0630  -0.0098   0.0060  -0.0103   0.50    1.3
1874  42383.700         4.2190         0.6902        -5.8206   2  11   0.0306   0.0356   0.0629  -0.0098   0.0059  -0.0103   0.70    1.3
1874  42383.900         4.2126         0.6885        -5.8214   2  11   0.0306   0.0356   0.0628  -0.0098   0.0058  -0.0102   0.90    1.3
1874  42384.100         4.2068         0.6846        -5.8160   2  11   0.0305   0.0355   0.0626  -0.0097   0.0056  -0.0102   0.10    1.3
1874  42384.300         4.2008         0.6808        -5.8139   2  11   0.0305   0.0354   0.0625  -0.0097   0.0055  -0.0102   0.30    1.3
1874  42384.500         4.1966         0.6767        -5.8123   2  11   0.0304   0.0354   0.0623  -0.0097   0.0054  -0.0102   0.50    1.3
1874  42384.700         4.1895         0.6762        -5.8094   2  11   0.0304   0.0353   0.0622  -0.0097   0.0052  -0.0101   0.70    1.3
1874  42384.900         4.1833         0.6731        -5.8099   2  11   0.0303   0.0353   0.0621  -0.0097   0.0051  -0.0101   0.90    1.3
1874  42385.100         4.1825         0.6692        -5.8062   2  11   0.0303   0.0352   0.0619  -0.0097   0.0049  -0.0101   0.10    1.3
1874  42385.300         4.1732         0.6668        -5.8110   2  11   0.0302   0.0351   0.0618  -0.0097   0.0048  -0.0101   0.30    1.3
1874  42385.500         4.1666         0.6632        -5.8065   2  11   0.0302   0.0351   0.0616  -0.0097   0.0047  -0.0101   0.50    1.3
1874  42385.700         4.1634         0.6599        -5.8016   2  11   0.0301   0.0350   0.0615  -0.0096   0.0046  -0.0100   0.70    1.3
1874  42385.900         4.1577         0.6574        -5.7997   2  11   0.0301   0.0350   0.0614  -0.0096   0.0045  -0.0100   0.90    1.4
1874  42386.100         4.1526         0.6544        -5.7984   2  11   0.0300   0.0349   0.0612  -0.0096   0.0042  -0.0100   0.10    1.4
1874  42386.300         4.1476         0.6518        -5.7937   2  11   0.0300   0.0348   0.0611  -0.0096   0.0041  -0.0100   0.30    1.4
1874  42386.500         4.1425         0.6496        -5.7856   2  11   0.0299   0.0348   0.0610  -0.0096   0.0039  -0.0099   0.50    1.4
1874  42386.700         4.1370         0.6464        -5.7870   2  11   0.0299   0.0347   0.0609  -0.0096   0.0038  -0.0099   0.70    1.4
1874  42386.900         4.1320         0.6475        -5.7856   2  11   0.0299   0.0347   0.0607  -0.0096   0.0037  -0.0099   0.90    1.4
1874  42387.100         4.1289         0.6432        -5.7848   2  11   0.0298   0.0346   0.0606  -0.0095   0.0034  -0.0099   0.10    1.4
1874  42387.300         4.1253         0.6412        -5.7780   2  11   0.0298   0.0346   0.0604  -0.0095   0.0032  -0.0099   0.30    1.4
1874  42387.500         4.1204         0.6418        -5.7751   2  11   0.0297   0.0345   0.0603  -0.0095   0.0030  -0.0098   0.50    1.4
1874  42387.700         4.1149         0.6418        -5.7672   2  11   0.0297   0.0345   0.0602  -0.0095   0.0029  -0.0098   0.70    1.4
1874  42387.900         4.1117         0.6393        -5.7640   2  11   0.0296   0.0344   0.0601  -0.0095   0.0027  -0.0098   0.90    1.3
1874  42388.100         4.1061         0.6384        -5.7641   2  11   0.0296   0.0343   0.0599  -0.0095   0.0023  -0.0098   0.10    1.3
1874  42388.300         4.1024         0.6385        -5.7557   2  11   0.0295   0.0343   0.0598  -0.0095   0.0021  -0.0098   0.30    1.3
1874  42388.500         4.1005         0.6386        -5.7495   2  11   0.0295   0.0342   0.0597  -0.0094   0.0018  -0.0097   0.50    1.3
1874  42388.700         4.0975         0.6360        -5.7477   2  11   0.0295   0.0342   0.0596  -0.0094   0.0015  -0.0097   0.70    1.3
1874  42388.900         4.0962         0.6365        -5.7535   2  11   0.0294   0.0341   0.0595  -0.0094   0.0012  -0.0097   0.90    1.3
1874  42389.000         4.0914         0.6357        -5.7441   2  11   0.0294   0.0341   0.0593  -0.0094  -0.0008  -0.0097   0.00    1.3
1874  42389.200         4.0898         0.6368        -5.7359   2  11   0.0293   0.0340   0.0592  -0.0094  -0.0013  -0.0097   0.20    1.3
1874  42389.400         4.0841         0.6341        -5.7383   2  11   0.0293   0.0340   0.0591  -0.0094  -0.0017  -0.0096   0.40    1.3
1874  42389.600         4.0806         0.6350        -5.7249   2  11   0.0292   0.0339   0.0589  -0.0094  -0.0019  -0.0096   0.60    1.3
1874  42389.800         4.0775         0.6376        -5.7218   2  11   0.0292   0.0339   0.0588  -0.0094  -0.0021  -0.0096   0.80    1.3
1874  42390.000         4.0748         0.6359        -5.7169   2  11   0.0292   0.0338   0.0587  -0.0093  -0.0025  -0.0096   0.00    1.3
1874  42390.200         4.0702         0.6383        -5.7116   2  11   0.0291   0.0338   0.0586  -0.0093  -0.0027  -0.0096   0.20    1.3
1874  42390.400         4.0676         0.6392        -5.7026   2  11   0.0291   0.0337   0.0584  -0.0093  -0.0029  -0.0095   0.40    1.3
1874  42390.600         4.0654         0.6391        -5.7057   2  11   0.0290   0.0337   0.0583  -0.0093  -0.0030  -0.0095   0.60    1.3
1874  42390.800         4.0608         0.6365        -5.7011   2  11   0.0290   0.0336   0.0582  -0.0093  -0.0032  -0.0095   0.80    1.3
1874  42391.000         4.0581         0.6396        -5.6919   2  11   0.0289   0.0335   0.0581  -0.0093  -0.0034  -0.0095   0.00    1.3
1874  42391.200         4.0530         0.6415        -5.6827   2  11   0.0289   0.0335   0.0579  -0.0093  -0.0036  -0.0095   0.20    1.2
1874  42391.400         4.0520         0.6417        -5.6780   2  11   0.0289   0.0334   0.0578  -0.0093  -0.0037  -0.0094   0.40    1.2
1874  42391.600         4.0495         0.6425        -5.6738   2  11   0.0288   0.0334   0.0577  -0.0093  -0.0038  -0.0094   0.60    1.2
1874  42391.800         4.0486         0.6426        -5.6723   2  11   0.0288   0.0333   0.0576  -0.0092  -0.0039  -0.0094   0.80    1.2
1874  42392.000         4.0440         0.6417        -5.6605   2  11   0.0287   0.0333   0.0575  -0.0092  -0.0041  -0.0094   0.00    1.2
1874  42392.200         4.0427         0.6432        -5.6557   2  11   0.0287   0.0332   0.0574  -0.0092  -0.0043  -0.0094   0.20    1.2
1874  42392.400         4.0391         0.6438        -5.6546   2  11   0.0287   0.0332   0.0572  -0.0092  -0.0044  -0.0093   0.40    1.2
1874  42392.600         4.0360         0.6438        -5.6471   2  11   0.0286   0.0331   0.0571  -0.0092  -0.0045  -0.0093   0.60    1.2
1874  42392.800         4.0338         0.6461        -5.6408   2  11   0.0286   0.0331   0.0570  -0.0092  -0.0045  -0.0093   0.80    1.2
1874  42393.000         4.0337         0.6476        -5.6325   2  11   0.0285   0.0330   0.0569  -0.0092  -0.0047  -0.0093   0.00    1.2
1874  42393.200         4.0304         0.6495        -5.6288   2  11   0.0285   0.0330   0.0568  -0.0092  -0.0048  -0.0093   0.20    1.2
1874  42393.400         4.0296         0.6521        -5.6252   2  11   0.0285   0.0329   0.0567  -0.0091  -0.0049  -0.0092   0.40    1.2
1874  42393.600         4.0291         0.6519        -5.6212   2  11   0.0284   0.0329   0.0566  -0.0091  -0.0050  -0.0092   0.60    1.2
1874  42393.800         4.0305         0.6557        -5.6134   2  11   0.0284   0.0329   0.0565  -0.0091  -0.0051  -0.0092   0.80    1.2
1874  42394.000         4.0265         0.6596        -5.6021   2  11   0.0283   0.0328   0.0563  -0.0091  -0.0052  -0.0092   0.00    1.2
1874  42394.200         4.0259         0.6612        -5.6051   2  11   0.0283   0.0327   0.0562  -0.0091  -0.0053  -0.0092   0.20    1.2
1874  42394.400         4.0253         0.6604        -5.5994   2  11   0.0283   0.0327   0.0561  -0.0091  -0.0054  -0.0092   0.40    1.1
1874  42394.600         4.0275         0.6623        -5.5942   2  11   0.0282   0.0327   0.0560  -0.0091  -0.0055  -0.0091   0.60    1.1
1874  42394.800         4.0261         0.6644        -5.5905   2  11   0.0282   0.0326   0.0559  -0.0091  -0.0055  -0.0091   0.80    1.1
1874  42395.000         4.0272         0.6644        -5.5832   2  11   0.0282   0.0326   0.0557  -0.0091  -0.0057  -0.0091   0.00    1.1
1874  42395.200         4.0261         0.6657        -5.5764   2  11   0.0281   0.0325   0.0556  -0.0090  -0.0057  -0.0091   0.20    1.1
1874  42395.400         4.0259         0.6642        -5.5734   2  11   0.0281   0.0325   0.0555  -0.0090  -0.0058  -0.0091   0.40    1.1
1874  42395.600         4.0271         0.6660        -5.5643   2  11   0.0280   0.0324   0.0554  -0.0090  -0.0059  -0.0090   0.60    1.1
1874  42395.800         4.0249         0.6686        -5.5561   2  11   0.0280   0.0324   0.0553  -0.0090  -0.0059  -0.0090   0.80    1.1
1874  42396.000         4.0265         0.6717        -5.5451   2  11   0.0280   0.0323   0.0552  -0.0090  -0.0061  -0.0090   0.00    1.1
1874  42396.200         4.0240         0.6704        -5.5353   2  11   0.0279   0.0323   0.0551  -0.0090  -0.0061  -0.0090   0.20    1.1
1874  42396.400         4.0252         0.6707        -5.5356   2  11   0.0279   0.0322   0.0550  -0.0090  -0.0062  -0.0090   0.40    1.1
1874  42396.600         4.0257         0.6741        -5.5222   2  11   0.0279   0.0322   0.0549  -0.0090  -0.0063  -0.0090   0.60    1.1
1874  42396.800         4.0267         0.6770        -5.5136   2  11   0.0278   0.0321   0.0548  -0.0090  -0.0063  -0.0089   0.80    1.1
1874  42397.000         4.0250         0.6771        -5.5045   2  11   0.0278   0.0321   0.0546  -0.0089  -0.0064  -0.0089   0.00    1.1
1874  42397.200         4.0230         0.6779        -5.5012   2  11   0.0277   0.0320   0.0545  -0.0089  -0.0065  -0.0089   0.20    1.1
1874  42397.300         4.0226         0.6796        -5.4947   2  11   0.0277   0.0320   0.0544  -0.0089  -0.0066  -0.0089   0.30    1.1
1874  42397.500         4.0232         0.6791        -5.4882   2  11   0.0277   0.0320   0.0543  -0.0089  -0.0066  -0.0089   0.50    1.1
1874  42397.700         4.0228         0.6791        -5.4814   2  11   0.0276   0.0319   0.0542  -0.0089  -0.0067  -0.0089   0.70    1.1
1874  42397.900         4.0205         0.6811        -5.4717   2  11   0.0276   0.0319   0.0542  -0.0089  -0.0067  -0.0088   0.90    1.1
1874  42398.100         4.0197         0.6785        -5.4631   2  11   0.0276   0.0318   0.0540  -0.0089  -0.0068  -0.0088   0.10    1.1
1874  42398.300         4.0182         0.6814        -5.4513   2  11   0.0275   0.0318   0.0539  -0.0089  -0.0069  -0.0088   0.30    1.0
1874  42398.500         4.0182         0.6811        -5.4440   2  11   0.0275   0.0317   0.0538  -0.0089  -0.0069  -0.0088   0.50    1.0
1874  42398.700         4.0155         0.6821        -5.4349   2  11   0.0275   0.0317   0.0537  -0.0089  -0.0070  -0.0088   0.70    1.0
1874  42398.900         4.0133         0.6824        -5.4211   2  11   0.0274   0.0317   0.0536  -0.0088  -0.0070  -0.0088   0.90    1.0
1874  42399.100         4.0167         0.6823        -5.4147   2  11   0.0274   0.0316   0.0535  -0.0088  -0.0071  -0.0087   0.10    1.0
1874  42399.300         4.0170         0.6824        -5.4062   2  11   0.0274   0.0316   0.0534  -0.0088  -0.0072  -0.0087   0.30    1.0
1874  42399.500         4.0147         0.6814        -5.3991   2  11   0.0273   0.0315   0.0533  -0.0088  -0.0072  -0.0087   0.50    1.0
1874  42399.700         4.0164         0.6831        -5.3884   2  11   0.0273   0.0315   0.0532  -0.0088  -0.0072  -0.0087   0.70    1.0
1874  42399.900         4.0152         0.6819        -5.3735   2  11   0.0273   0.0314   0.0531  -0.0088  -0.0073  -0.0087   0.90    1.0
1874  42400.100         4.0161         0.6772        -5.3749   2  11   0.0272   0.0314   0.0530  -0.0088  -0.0074  -0.0086   0.10    1.0
1874  42400.300         4.0151         0.6775        -5.3663   2  11   0.0272   0.0313   0.0529  -0.0088  -0.0074  -0.0086   0.30    1.0
1874  42400.500         4.0182         0.6757        -5.3609   2  11   0.0272   0.0313   0.0528  -0.0088  -0.0075  -0.0086   0.50    1.0
1874  42400.700         4.0166         0.6737        -5.3482   2  11   0.0271   0.0313   0.0527  -0.0088  -0.0075  -0.0086   0.70    1.0
1874  42400.900         4.0189         0.6729        -5.3418   2  11   0.0271   0.0312   0.0526  -0.0087  -0.0075  -0.0086   0.90    1.0
1874  42401.100         4.0170         0.6735        -5.3289   2  11   0.0270   0.0312   0.0525  -0.0087  -0.0076  -0.0086   0.10    1.0
1874  42401.300         4.0184         0.6751        -5.3259   2  11   0.0270   0.0311   0.0524  -0.0087  -0.0077  -0.0085   0.30    1.0
1874  42401.500         4.0174         0.6739        -5.3181   2  11   0.0270   0.0311   0.0523  -0.0087  -0.0077  -0.0085   0.50    1.0
1874  42401.700         4.0147         0.6746        -5.3113   2  11   0.0270   0.0311   0.0522  -0.0087  -0.0078  -0.0085   0.70    1.0
1874  42401.900         4.0147         0.6745        -5.3063   2  11   0.0269   0.0310   0.0521  -0.0087  -0.0078  -0.0085   0.90    1.0
1874  42402.100         4.0139         0.6728        -5.3013   2  11   0.0269   0.0310   0.0520  -0.0087  -0.0079  -0.0085   0.10    1.0
1874  42402.300         4.0124         0.6796        -5.2892   2  11   0.0268   0.0309   0.0519  -0.0087  -0.0079  -0.0085   0.30    1.0
1874  42402.500         4.0099         0.6748        -5.2805   2  11   0.0268   0.0309   0.0518  -0.0087  -0.0080  -0.0085   0.50    1.0
1874  42402.700         4.0098         0.6810        -5.2685   2  11   0.0268   0.0309   0.0517  -0.0087  -0.0080  -0.0084   0.70    1.0
1874  42402.800         4.0089         0.6763        -5.2681   2  11   0.0268   0.0308   0.0516  -0.0087  -0.0080  -0.0084   0.80    1.0
1874  42403.000         4.0060         0.6819        -5.2540   2  11   0.0267   0.0308   0.0515  -0.0086  -0.0081  -0.0084   0.00    1.0
1874  42403.200         4.0042         0.6850        -5.2359   2  11   0.0267   0.0307   0.0514  -0.0086  -0.0081  -0.0084   0.20    1.0
1874  42403.400         4.0011         0.6848        -5.2292   2  11   0.0267   0.0307   0.0513  -0.0086  -0.0082  -0.0084   0.40    1.0
1874  42403.600         3.9986         0.6878        -5.2237   2  11   0.0266   0.0306   0.0512  -0.0086  -0.0082  -0.0084   0.60    1.0
1874  42403.800         4.0004         0.6882        -5.2101   2  11   0.0266   0.0306   0.0512  -0.0086  -0.0082  -0.0083   0.80    1.0
1874  42404.000         3.9960         0.6890        -5.2028   2  11   0.0266   0.0306   0.0510  -0.0086  -0.0083  -0.0083   0.00    1.1
1874  42404.200         3.9893         0.6917        -5.1911   2  11   0.0265   0.0305   0.0509  -0.0086  -0.0084  -0.0083   0.20    1.1
1874  42404.400         3.9887         0.6893        -5.1786   2  11   0.0265   0.0305   0.0508  -0.0086  -0.0084  -0.0083   0.40    1.1
1874  42404.600         3.9860         0.6903        -5.1680   2  11   0.0265   0.0305   0.0508  -0.0086  -0.0084  -0.0083   0.60    1.1
1874  42404.800         3.9827         0.6916        -5.1676   2  11   0.0264   0.0304   0.0507  -0.0086  -0.0084  -0.0083   0.80    1.1
1874  42405.000         3.9795         0.6937        -5.1474   2  11   0.0264   0.0304   0.0506  -0.0085  -0.0085  -0.0082   0.00    1.1
1874  42405.200         3.9775         0.6941        -5.1343   2  11   0.0264   0.0303   0.0505  -0.0085  -0.0086  -0.0082   0.20    1.1
1874  42405.400         3.9749         0.6920        -5.1274   2  11   0.0263   0.0303   0.0504  -0.0085  -0.0086  -0.0082   0.40    1.1
1874  42405.600         3.9715         0.6925        -5.1203   2  11   0.0263   0.0303   0.0503  -0.0085  -0.0086  -0.0082   0.60    1.1
1874  42405.800         3.9673         0.6951        -5.1016   2  11   0.0263   0.0302   0.0502  -0.0085  -0.0086  -0.0082   0.80    1.1
1874  42406.000         3.9614         0.6952        -5.0877   2  11   0.0262   0.0302   0.0501  -0.0085  -0.0087  -0.0082   0.00    1.1
1874  42406.200         3.9639         0.6935        -5.0788   2  11   0.0262   0.0301   0.0500  -0.0085  -0.0087  -0.0082   0.20    1.1
1874  42406.400         3.9581         0.6910        -5.0686   2  11   0.0262   0.0301   0.0499  -0.0085  -0.0088  -0.0081   0.40    1.1
