% program   : RTKPOST ver.2.4.2
% inp file  : C:\Users\Administrator\Desktop\postflight\rtklib_ubxstream_x8_log201512081128.obs
% inp file  : C:\Users\Administrator\Desktop\postflight\rtklib_ubxstream_base_log201512081128.obs
% inp file  : C:\Users\Administrator\Desktop\postflight\rtklib_ubxstream_x8_log201512081128.*nav
% obs start : 2015/12/08 11:28:59.0 GPST (week1874 214139.0s)
% obs end   : 2015/12/08 12:04:21.9 GPST (week1874 216261.9s)
% pos mode  : moving-base
% freqs     : L1
% solution  : forward
% elev mask : 10.0 deg
% dynamics  : on
% tidecorr  : off
% ionos opt : broadcast
% tropo opt : saastamoinen
% ephemeris : broadcast
% amb res   : fix and hold
% val thres : 3.0
% antenna1  :                       ( 0.0000  0.0000  0.0000)
% antenna2  :                       ( 0.0000  0.0000  0.0000)
%
% (e/n/u-baseline=WGS84,Q=1:fix,2:float,3:sbas,4:dgps,5:single,6:ppp,ns=# of satellites)
%  GPST          e-baseline(m)  n-baseline(m)  u-baseline(m)   Q  ns   sde(m)   sdn(m)   sdu(m)  sden(m)  sdnu(m)  sdue(m) age(s)  ratio
1874 214139.000        27.4695         1.7164        -0.1014   2   9   0.6733   0.6861   1.4225  -0.1652   0.3699   0.5388   0.00    1.1
1874 214139.200        26.8553         1.8931         0.3709   2   9   0.4810   0.4910   1.0131  -0.1197   0.2593   0.3860   0.00    1.0
1874 214139.400        26.6369         1.8325         0.3154   2   9   0.3941   0.4026   0.8293  -0.0985   0.2111   0.3166   0.00    1.0
1874 214139.600        26.5429         1.6584         0.1062   2   9   0.3419   0.3494   0.7190  -0.0857   0.1825   0.2748   0.00    1.1
1874 214139.800        26.7955         1.4707        -0.1400   2   9   0.3061   0.3129   0.6436  -0.0769   0.1631   0.2461   0.00    1.2
1874 214140.000        26.9670         1.3882        -0.2744   2   9   0.2796   0.2859   0.5878  -0.0703   0.1487   0.2248   0.00    1.5
1874 214140.200        26.9540         1.3663        -0.3029   2   9   0.2591   0.2649   0.5446  -0.0639   0.1371   0.2076   0.00    1.1
1874 214140.400        27.9079         1.6252         1.3888   2  10   0.2341   0.2475   0.4974  -0.0662   0.1236   0.1760   0.00    1.3
1874 214140.600        28.4453         1.7790         2.2656   2  10   0.2155   0.2332   0.4617  -0.0660   0.1133   0.1537   0.00    1.3
1874 214140.800        28.8910         1.8953         2.8276   2  10   0.2009   0.2212   0.4329  -0.0649   0.1052   0.1368   0.00    1.4
1874 214141.000        29.0974         1.9481         3.1696   2  10   0.1889   0.2109   0.4092  -0.0635   0.0986   0.1237   0.00    1.6
1874 214141.200        29.1950         1.9633         3.3693   2  10   0.1789   0.2019   0.3891  -0.0619   0.0931   0.1131   0.00    1.7
1874 214141.400        29.2686         1.9829         3.5637   2  10   0.1704   0.1939   0.3717  -0.0604   0.0885   0.1044   0.00    1.6
1874 214141.600        29.2091         1.9619         3.3782   2  10   0.1630   0.1869   0.3565  -0.0589   0.0845   0.0971   0.00    1.7
1874 214141.800        29.2330         1.9284         3.2784   2  10   0.1565   0.1806   0.3431  -0.0574   0.0809   0.0909   0.00    1.7
1874 214142.000        29.2026         1.8486         3.0942   2  10   0.1508   0.1748   0.3311  -0.0560   0.0778   0.0856   0.00    1.6
1874 214142.200        29.0020         1.7462         2.6778   2  10   0.1456   0.1696   0.3203  -0.0547   0.0751   0.0809   0.00    1.4
1874 214142.400        28.7973         1.6287         2.1756   2  10   0.1409   0.1648   0.3105  -0.0535   0.0725   0.0768   0.00    1.0
1874 214142.600        28.6846         1.6363         1.9787   2  10   0.1367   0.1604   0.3016  -0.0523   0.0703   0.0732   0.00    1.2
1874 214142.800        28.5863         1.6377         1.7068   2  10   0.1328   0.1564   0.2933  -0.0512   0.0682   0.0700   0.00    1.4
1874 214143.000        28.4678         1.6582         1.3976   2  10   0.1293   0.1526   0.2858  -0.0502   0.0663   0.0671   0.00    1.7
1874 214143.200        28.4766         1.6638         1.2476   2   9   0.1270   0.1491   0.2802  -0.0487   0.0652   0.0679   0.00    1.7
1874 214143.400        28.4718         1.6415         1.1209   2   9   0.1248   0.1459   0.2748  -0.0473   0.0641   0.0683   0.00    1.6
1874 214143.600        28.3843         1.5919         0.9292   2  10   0.1219   0.1428   0.2685  -0.0465   0.0626   0.0657   0.00    1.7
1874 214143.800        28.2938         1.5254         0.7147   2  10   0.1191   0.1399   0.2627  -0.0458   0.0611   0.0633   0.00    1.7
1874 214144.000        28.2434         1.5156         0.5570   2  10   0.1165   0.1372   0.2572  -0.0450   0.0597   0.0611   0.00    1.6
1874 214144.200        28.2112         1.4630         0.4595   2  10   0.1141   0.1347   0.2520  -0.0443   0.0584   0.0591   0.00    1.5
1874 214144.400        28.1862         1.4304         0.3774   2  10   0.1118   0.1322   0.2472  -0.0436   0.0572   0.0573   0.00    1.4
1874 214144.600        28.1896         1.4105         0.3224   2  10   0.1096   0.1300   0.2426  -0.0430   0.0560   0.0555   0.00    1.3
1874 214144.800        28.2262         1.3897         0.3491   2  10   0.1076   0.1278   0.2382  -0.0424   0.0549   0.0540   0.00    1.3
1874 214145.000        28.3014         1.3950         0.4445   2  10   0.1057   0.1257   0.2341  -0.0418   0.0539   0.0525   0.00    1.2
1874 214145.200        28.4000         1.3973         0.5188   2  10   0.1039   0.1237   0.2302  -0.0412   0.0529   0.0511   0.00    1.2
1874 214145.400        28.5300         1.4058         0.7213   2  10   0.1022   0.1218   0.2265  -0.0406   0.0520   0.0498   0.00    1.1
1874 214145.600        28.6376         1.3954         0.8276   2  10   0.1005   0.1200   0.2230  -0.0401   0.0511   0.0486   0.00    1.0
1874 214145.800        28.6755         1.3812         0.8725   2  10   0.0990   0.1183   0.2196  -0.0396   0.0503   0.0475   0.00    1.0
1874 214146.000        28.7341         1.3923         0.9691   2  10   0.0975   0.1167   0.2164  -0.0391   0.0495   0.0464   0.00    1.1
1874 214146.200        28.7293         1.4013         0.9284   2  10   0.0960   0.1151   0.2133  -0.0386   0.0487   0.0454   0.00    1.1
1874 214146.400        28.7120         1.4029         0.8990   2   9   0.0952   0.1136   0.2109  -0.0379   0.0483   0.0461   0.00    1.1
1874 214146.600        28.7120         1.4247         0.8681   2   9   0.0942   0.1121   0.2086  -0.0373   0.0479   0.0465   0.00    1.1
1874 214146.800        28.7316         1.4464         0.8306   2   9   0.0933   0.1107   0.2063  -0.0367   0.0474   0.0469   0.00    1.0
1874 214147.000        28.7406         1.4483         0.7747   2   9   0.0924   0.1094   0.2041  -0.0362   0.0470   0.0472   0.00    1.0
1874 214147.200        28.7394         1.4492         0.7310   2   9   0.0916   0.1081   0.2020  -0.0356   0.0465   0.0475   0.00    1.0
1874 214147.400        28.7395         1.4431         0.6807   2   9   0.0908   0.1068   0.2000  -0.0351   0.0461   0.0477   0.00    1.0
1874 214147.600        28.7315         1.4383         0.6387   2   9   0.0900   0.1056   0.1980  -0.0346   0.0457   0.0479   0.00    1.0
1874 214147.800        28.7074         1.4127         0.5688   2   9   0.0892   0.1044   0.1961  -0.0341   0.0453   0.0481   0.00    1.0
1874 214148.000        28.7241         1.3975         0.5373   2  10   0.0881   0.1033   0.1937  -0.0338   0.0447   0.0471   0.00    1.1
1874 214148.200        28.7343         1.3823         0.4927   2  10   0.0870   0.1022   0.1914  -0.0335   0.0441   0.0461   0.00    1.1
1874 214148.400        28.7431         1.3720         0.5399   2   9   0.0863   0.1011   0.1897  -0.0331   0.0438   0.0464   0.00    1.1
1874 214148.600        28.7404         1.3748         0.5984   2   9   0.0856   0.1001   0.1880  -0.0326   0.0434   0.0465   0.00    1.1
1874 214148.800        28.7443         1.3812         0.6654   2  10   0.0847   0.0991   0.1860  -0.0324   0.0429   0.0457   0.00    1.1
1874 214149.000        28.7493         1.3529         0.6948   2  10   0.0837   0.0981   0.1839  -0.0321   0.0424   0.0447   0.00    1.0
1874 214149.200        28.7453         1.3516         0.8025   2  10   0.0828   0.0972   0.1819  -0.0319   0.0419   0.0439   0.00    1.0
1874 214149.400        28.7451         1.3301         0.8736   2  10   0.0819   0.0963   0.1801  -0.0316   0.0414   0.0431   0.00    1.1
1874 214149.600        28.7667         1.2862         0.9324   2  10   0.0810   0.0954   0.1782  -0.0314   0.0409   0.0424   0.00    1.1
1874 214149.800        28.8036         1.2631         1.1112   2  10   0.0802   0.0945   0.1765  -0.0312   0.0405   0.0417   0.00    1.3
1874 214150.000        28.8348         1.2436         1.2766   2  10   0.0794   0.0936   0.1748  -0.0309   0.0400   0.0410   0.00    1.3
1874 214150.200        28.8611         1.2149         1.3405   2  10   0.0786   0.0928   0.1731  -0.0307   0.0396   0.0404   0.00    1.3
1874 214150.400        28.8806         1.1788         1.4238   2  10   0.0779   0.0920   0.1715  -0.0305   0.0392   0.0398   0.00    1.3
1874 214150.600        28.8997         1.1398         1.4833   2  10   0.0771   0.0912   0.1699  -0.0302   0.0388   0.0392   0.00    1.3
1874 214150.800        28.9299         1.0988         1.6412   2  10   0.0764   0.0905   0.1684  -0.0300   0.0384   0.0386   0.00    1.4
1874 214151.000        28.9620         1.0459         1.7631   2  10   0.0757   0.0897   0.1669  -0.0298   0.0380   0.0381   0.00    1.4
1874 214151.200        29.0023         1.0000         1.8500   2  10   0.0750   0.0890   0.1654  -0.0296   0.0376   0.0375   0.00    1.4
1874 214151.400        29.0143         0.9547         1.8606   2  10   0.0744   0.0883   0.1640  -0.0294   0.0373   0.0370   0.00    1.4
1874 214151.600        29.0496         0.9279         1.9219   2  10   0.0737   0.0876   0.1626  -0.0292   0.0369   0.0365   0.00    1.4
1874 214151.800        29.0806         0.9112         1.9793   2  10   0.0731   0.0869   0.1613  -0.0290   0.0365   0.0360   0.00    1.4
1874 214152.000        29.1081         0.8969         2.0680   2  10   0.0725   0.0863   0.1600  -0.0288   0.0362   0.0356   0.00    1.4
1874 214152.200        29.1345         0.8708         2.1461   2  10   0.0719   0.0856   0.1587  -0.0286   0.0359   0.0351   0.00    1.4
1874 214152.400        29.1337         0.8564         2.1464   2  10   0.0713   0.0850   0.1574  -0.0285   0.0356   0.0347   0.00    1.4
1874 214152.600        29.1227         0.8415         2.1599   2  10   0.0708   0.0844   0.1562  -0.0283   0.0352   0.0342   0.00    1.3
1874 214152.800        29.1070         0.8299         2.1660   2  10   0.0702   0.0838   0.1550  -0.0281   0.0349   0.0338   0.00    1.3
1874 214153.000        29.0923         0.8016         2.1569   2  10   0.0697   0.0832   0.1538  -0.0279   0.0346   0.0334   0.00    1.3
1874 214153.200        29.0837         0.7950         2.2133   2  10   0.0692   0.0826   0.1527  -0.0278   0.0343   0.0330   0.00    1.3
1874 214153.400        29.0749         0.7823         2.2328   2  10   0.0687   0.0820   0.1515  -0.0276   0.0341   0.0327   0.00    1.3
1874 214153.600        29.0580         0.7700         2.2206   2  10   0.0682   0.0815   0.1504  -0.0274   0.0338   0.0323   0.00    1.2
1874 214153.800        29.0461         0.7551         2.2149   2  10   0.0677   0.0809   0.1494  -0.0273   0.0335   0.0319   0.00    1.2
1874 214154.000        29.0263         0.7559         2.2218   2  10   0.0672   0.0804   0.1483  -0.0271   0.0332   0.0316   0.00    1.2
1874 214154.200        29.0280         0.7422         2.2179   2   9   0.0668   0.0802   0.1475  -0.0272   0.0339   0.0309   0.00    1.8
1874 214154.400        29.0117         0.7360         2.2110   2   9   0.0663   0.0798   0.1466  -0.0272   0.0340   0.0305   0.00    1.8
1874 214154.600        28.9949         0.7143         2.1625   2  10   0.0659   0.0793   0.1456  -0.0270   0.0338   0.0302   0.00    1.9
1874 214154.800        28.9867         0.7157         2.1537   2   9   0.0654   0.0790   0.1448  -0.0270   0.0339   0.0297   0.00    2.0
1874 214155.000        28.9249         0.7789         2.0828   2  10   0.0650   0.0785   0.1439  -0.0268   0.0341   0.0292   0.00    2.1
1874 214155.200        28.8811         0.8196         2.0170   2  10   0.0645   0.0780   0.1430  -0.0266   0.0343   0.0287   0.00    2.0
1874 214155.400        28.8569         0.8420         1.9626   2  10   0.0641   0.0776   0.1422  -0.0264   0.0345   0.0283   0.00    1.9
1874 214155.600        28.7998         0.9852         2.1420   2  11   0.0636   0.0770   0.1412  -0.0261   0.0342   0.0280   0.00    1.9
1874 214155.800        28.7875         0.9418         2.0369   2  11   0.0632   0.0765   0.1403  -0.0258   0.0340   0.0276   0.00    1.9
1874 214156.000        28.7899         0.9146         1.9757   2  11   0.0628   0.0760   0.1394  -0.0255   0.0338   0.0273   0.00    1.9
1874 214156.200        28.7786         0.8901         1.9428   2  11   0.0624   0.0754   0.1385  -0.0253   0.0337   0.0269   0.00    1.8
1874 214156.400        28.7746         0.8708         1.8804   2  11   0.0620   0.0750   0.1377  -0.0251   0.0335   0.0266   0.00    1.8
1874 214156.600        28.7655         0.8442         1.8026   2  11   0.0616   0.0745   0.1368  -0.0248   0.0334   0.0263   0.00    1.8
1874 214156.800        28.7574         0.8211         1.7510   2  11   0.0612   0.0740   0.1360  -0.0246   0.0332   0.0260   0.00    1.9
1874 214157.000        28.7523         0.7966         1.7142   2  11   0.0608   0.0735   0.1352  -0.0244   0.0331   0.0257   0.00    1.9
1874 214157.200        28.7562         0.7633         1.6602   2  11   0.0604   0.0731   0.1344  -0.0242   0.0329   0.0254   0.00    1.9
1874 214157.400        28.7591         0.7361         1.6063   2  11   0.0600   0.0726   0.1336  -0.0240   0.0328   0.0251   0.00    1.9
1874 214157.600        28.7538         0.7212         1.5462   2  11   0.0597   0.0722   0.1328  -0.0237   0.0326   0.0248   0.00    1.9
1874 214157.800        28.7574         0.7084         1.5018   2  11   0.0593   0.0718   0.1321  -0.0235   0.0325   0.0246   0.00    1.9
1874 214158.000        28.7487         0.6924         1.4573   2  11   0.0590   0.0713   0.1313  -0.0234   0.0323   0.0243   0.00    1.9
1874 214158.200        28.7433         0.6781         1.4109   2  11   0.0587   0.0709   0.1306  -0.0231   0.0323   0.0243   0.00    1.0
1874 214158.400        28.7225         0.6723         1.3577   2  11   0.0583   0.0705   0.1299  -0.0229   0.0321   0.0239   0.00    1.5
1874 214158.600        28.7187         0.6611         1.3159   2  11   0.0580   0.0701   0.1291  -0.0228   0.0319   0.0236   0.00    1.7
1874 214158.800        28.7268         0.6562         1.2878   2  11   0.0577   0.0697   0.1284  -0.0226   0.0318   0.0233   0.00    1.7
1874 214159.000        28.7392         0.6594         1.2819   2  11   0.0574   0.0693   0.1277  -0.0224   0.0316   0.0230   0.00    1.8
1874 214159.200        28.7444         0.6673         1.2734   2  11   0.0570   0.0689   0.1270  -0.0223   0.0315   0.0228   0.00    1.9
1874 214159.400        28.7484         0.6656         1.2626   2  11   0.0567   0.0686   0.1264  -0.0221   0.0313   0.0226   0.00    1.9
1874 214159.600        28.7541         0.6661         1.2509   2  11   0.0564   0.0682   0.1257  -0.0219   0.0312   0.0223   0.00    2.0
1874 214159.800        28.7619         0.6670         1.2426   2  11   0.0561   0.0678   0.1251  -0.0218   0.0311   0.0221   0.00    2.1
1874 214160.000        28.7586         0.6656         1.2254   2  11   0.0558   0.0675   0.1244  -0.0216   0.0309   0.0219   0.00    2.1
1874 214160.200        28.7600         0.6581         1.1987   2  11   0.0555   0.0671   0.1238  -0.0215   0.0308   0.0217   0.00    2.1
1874 214160.400        28.7561         0.6530         1.1733   2  11   0.0553   0.0668   0.1232  -0.0213   0.0307   0.0214   0.00    2.2
1874 214160.600        28.7545         0.6553         1.1537   2  11   0.0550   0.0664   0.1226  -0.0212   0.0305   0.0212   0.00    2.2
1874 214160.800        28.7492         0.6552         1.1325   2  11   0.0547   0.0661   0.1219  -0.0210   0.0304   0.0210   0.00    2.2
1874 214161.000        28.7437         0.6567         1.1213   2  11   0.0544   0.0658   0.1214  -0.0209   0.0303   0.0208   0.00    2.2
1874 214161.200        28.7437         0.6501         1.0960   2  11   0.0542   0.0655   0.1208  -0.0208   0.0301   0.0206   0.00    2.2
1874 214161.400        28.7447         0.6434         1.0728   2  11   0.0539   0.0651   0.1202  -0.0206   0.0300   0.0204   0.00    2.2
1874 214161.600        28.7413         0.6348         1.0501   2  11   0.0536   0.0648   0.1196  -0.0205   0.0299   0.0202   0.00    2.2
1874 214161.800        28.7380         0.6303         1.0330   2  11   0.0534   0.0645   0.1190  -0.0204   0.0297   0.0201   0.00    2.1
1874 214162.000        28.7347         0.6215         1.0085   2  11   0.0531   0.0642   0.1185  -0.0202   0.0296   0.0199   0.00    2.1
1874 214162.200        28.7297         0.6141         0.9730   2  11   0.0529   0.0639   0.1179  -0.0201   0.0295   0.0197   0.00    2.1
1874 214162.400        28.7231         0.6026         0.9489   2  11   0.0526   0.0636   0.1174  -0.0200   0.0294   0.0195   0.00    2.0
1874 214162.600        28.7214         0.5960         0.9135   2  11   0.0524   0.0633   0.1169  -0.0199   0.0292   0.0194   0.00    2.0
1874 214162.800        28.7153         0.5838         0.8828   2  11   0.0522   0.0630   0.1163  -0.0197   0.0291   0.0192   0.00    1.9
1874 214163.000        28.7048         0.5763         0.8571   2  11   0.0519   0.0627   0.1158  -0.0196   0.0290   0.0190   0.00    1.8
1874 214163.200        28.7033         0.5650         0.8226   2  11   0.0517   0.0624   0.1153  -0.0195   0.0289   0.0189   0.00    1.8
1874 214163.400        28.7048         0.5576         0.7850   2  11   0.0515   0.0622   0.1148  -0.0194   0.0288   0.0187   0.00    1.8
1874 214163.600        28.7055         0.5514         0.7586   2  11   0.0512   0.0619   0.1143  -0.0193   0.0286   0.0185   0.00    1.8
1874 214163.800        28.7006         0.5389         0.7282   2  11   0.0510   0.0616   0.1138  -0.0192   0.0285   0.0184   0.00    1.8
1874 214164.000        28.6954         0.5330         0.7051   2  11   0.0508   0.0613   0.1133  -0.0191   0.0284   0.0182   0.00    1.8
1874 214164.200        28.6946         0.5137         0.6647   2  11   0.0506   0.0613   0.1129  -0.0192   0.0287   0.0179   0.00    1.2
1874 214164.400        28.6929         0.5069         0.6537   2  11   0.0504   0.0610   0.1124  -0.0190   0.0284   0.0178   0.00    1.4
1874 214164.600        28.6903         0.4977         0.6289   2  11   0.0502   0.0607   0.1119  -0.0188   0.0283   0.0177   0.00    1.5
1874 214164.800        28.6886         0.4865         0.6060   2  11   0.0499   0.0604   0.1114  -0.0187   0.0281   0.0176   0.00    1.4
1874 214165.000        28.6846         0.4773         0.5840   2  11   0.0497   0.0601   0.1110  -0.0186   0.0280   0.0174   0.00    1.3
1874 214165.200        28.6812         0.4698         0.5575   2  11   0.0495   0.0599   0.1105  -0.0185   0.0279   0.0173   0.00    1.3
1874 214165.400        28.6777         0.4593         0.5346   2  11   0.0493   0.0596   0.1100  -0.0184   0.0278   0.0172   0.00    1.2
1874 214165.600        28.6719         0.4492         0.5072   2  11   0.0491   0.0594   0.1096  -0.0183   0.0277   0.0170   0.00    1.2
1874 214165.800        28.6666         0.4386         0.4820   2  11   0.0489   0.0591   0.1091  -0.0182   0.0275   0.0169   0.00    1.1
1874 214166.000        28.6596         0.4294         0.4608   2  11   0.0487   0.0589   0.1087  -0.0181   0.0274   0.0168   0.00    1.1
1874 214166.200        28.6571         0.4181         0.4381   2  11   0.0486   0.0587   0.1083  -0.0180   0.0273   0.0166   0.00    1.0
1874 214166.400        28.6557         0.4084         0.4191   2  11   0.0484   0.0584   0.1078  -0.0179   0.0272   0.0165   0.00    1.1
1874 214166.600        28.6498         0.3954         0.3908   2  11   0.0482   0.0582   0.1074  -0.0178   0.0271   0.0164   0.00    1.1
1874 214166.800        28.6463         0.3852         0.3699   2  11   0.0480   0.0580   0.1070  -0.0177   0.0270   0.0163   0.00    1.1
1874 214167.000        28.6386         0.3773         0.3535   2  11   0.0478   0.0577   0.1066  -0.0177   0.0269   0.0161   0.00    1.1
1874 214167.200        28.6333         0.3642         0.3257   2  11   0.0476   0.0575   0.1062  -0.0176   0.0268   0.0160   0.00    1.2
1874 214167.400        28.6269         0.3556         0.3074   2  11   0.0474   0.0573   0.1058  -0.0175   0.0267   0.0159   0.00    1.2
1874 214167.600        28.6206         0.3457         0.2824   2  11   0.0473   0.0571   0.1054  -0.0174   0.0266   0.0158   0.00    1.2
1874 214167.800        28.6137         0.3382         0.2671   2  11   0.0471   0.0569   0.1050  -0.0173   0.0265   0.0157   0.00    1.2
1874 214168.000        28.6042         0.3311         0.2491   2  11   0.0469   0.0567   0.1046  -0.0172   0.0264   0.0156   0.00    1.3
1874 214168.200        28.5992         0.3173         0.2295   2  11   0.0468   0.0565   0.1042  -0.0172   0.0263   0.0154   0.00    1.3
1874 214168.400        28.5895         0.3146         0.2121   2  11   0.0466   0.0562   0.1038  -0.0171   0.0262   0.0153   0.00    1.3
1874 214168.600        28.5837         0.3043         0.1938   2  11   0.0464   0.0560   0.1034  -0.0170   0.0261   0.0152   0.00    1.4
1874 214168.800        28.5824         0.2992         0.1681   2  11   0.0463   0.0558   0.1030  -0.0169   0.0260   0.0151   0.00    1.4
1874 214169.000        28.5690         0.2891         0.1608   2  11   0.0461   0.0556   0.1027  -0.0169   0.0259   0.0150   0.00    1.4
1874 214169.200        28.5548         0.2811         0.1603   2  11   0.0459   0.0554   0.1023  -0.0168   0.0258   0.0149   0.00    1.5
1874 214169.400        28.5499         0.2742         0.1439   2  11   0.0458   0.0552   0.1019  -0.0167   0.0257   0.0148   0.00    1.5
1874 214169.600        28.5409         0.2670         0.1286   2  11   0.0456   0.0550   0.1016  -0.0166   0.0256   0.0147   0.00    1.5
1874 214169.800        28.5279         0.2583         0.1181   2  11   0.0455   0.0549   0.1012  -0.0166   0.0255   0.0146   0.00    1.5
1874 214170.000        28.5208         0.2519         0.1039   2  11   0.0453   0.0547   0.1008  -0.0165   0.0254   0.0145   0.00    1.5
1874 214170.200        28.5164         0.2492         0.0880   2  11   0.0451   0.0545   0.1005  -0.0164   0.0253   0.0144   0.00    1.6
1874 214170.400        28.5130         0.2511         0.0789   2  11   0.0450   0.0543   0.1001  -0.0164   0.0252   0.0143   0.00    1.6
1874 214170.600        28.5068         0.2449         0.0656   2  11   0.0448   0.0541   0.0998  -0.0163   0.0251   0.0142   0.00    1.6
1874 214170.800        28.4988         0.2453         0.0533   2  11   0.0447   0.0539   0.0994  -0.0162   0.0250   0.0141   0.00    1.6
1874 214171.000        28.4954         0.2436         0.0434   2  11   0.0445   0.0537   0.0991  -0.0162   0.0249   0.0140   0.00    1.6
1874 214171.200        28.4870         0.2399         0.0239   2  11   0.0444   0.0536   0.0988  -0.0161   0.0248   0.0139   0.00    1.6
1874 214171.400        28.4821         0.2403         0.0144   2  11   0.0443   0.0534   0.0984  -0.0160   0.0248   0.0138   0.00    1.7
1874 214171.600        28.4776         0.2385        -0.0055   2  11   0.0441   0.0532   0.0981  -0.0160   0.0247   0.0137   0.00    1.7
1874 214171.800        28.4680         0.2384        -0.0137   2  11   0.0440   0.0530   0.0978  -0.0159   0.0246   0.0136   0.00    1.8
1874 214172.000        28.4573         0.2360        -0.0202   2  11   0.0438   0.0529   0.0974  -0.0158   0.0245   0.0136   0.00    1.8
1874 214172.200        28.4509         0.2359        -0.0244   2  11   0.0437   0.0527   0.0971  -0.0158   0.0244   0.0135   0.00    1.8
1874 214172.400        28.4443         0.2348        -0.0321   2  11   0.0436   0.0525   0.0968  -0.0157   0.0243   0.0134   0.00    1.9
1874 214172.600        28.4393         0.2394        -0.0356   2  11   0.0434   0.0524   0.0965  -0.0157   0.0242   0.0133   0.00    1.9
1874 214172.800        28.4338         0.2408        -0.0328   2  11   0.0433   0.0522   0.0961  -0.0156   0.0241   0.0132   0.00    1.9
1874 214173.000        28.4245         0.2414        -0.0433   2  11   0.0432   0.0520   0.0958  -0.0155   0.0240   0.0131   0.00    2.0
1874 214173.200        28.4188         0.2436        -0.0476   2  11   0.0430   0.0519   0.0955  -0.0155   0.0240   0.0130   0.00    2.0
1874 214173.400        28.4093         0.2480        -0.0418   2  11   0.0429   0.0517   0.0952  -0.0154   0.0239   0.0130   0.00    2.0
1874 214173.600        28.4017         0.2498        -0.0539   2  11   0.0428   0.0516   0.0949  -0.0154   0.0238   0.0129   0.00    2.1
1874 214173.800        28.3950         0.2540        -0.0559   2  11   0.0426   0.0514   0.0946  -0.0153   0.0237   0.0128   0.00    2.1
1874 214174.000        28.3818         0.2552        -0.0644   2  11   0.0425   0.0512   0.0943  -0.0153   0.0236   0.0127   0.00    2.1
1874 214174.200        28.3740         0.2588        -0.0643   2  11   0.0424   0.0511   0.0940  -0.0152   0.0235   0.0126   0.00    2.2
1874 214174.400        28.3691         0.2602        -0.0701   2  11   0.0423   0.0509   0.0937  -0.0152   0.0234   0.0126   0.00    2.2
1874 214174.600        28.3622         0.2621        -0.0832   2  11   0.0421   0.0508   0.0934  -0.0151   0.0233   0.0125   0.00    2.2
1874 214174.800        28.3530         0.2635        -0.0841   2  11   0.0420   0.0506   0.0931  -0.0151   0.0233   0.0124   0.00    2.3
1874 214175.000        28.3484         0.2610        -0.0964   2  11   0.0419   0.0505   0.0928  -0.0150   0.0232   0.0123   0.00    2.3
1874 214175.200        28.3421         0.2645        -0.1104   2  11   0.0418   0.0503   0.0925  -0.0149   0.0231   0.0123   0.00    2.4
1874 214175.400        28.3357         0.2663        -0.1127   2  11   0.0416   0.0502   0.0922  -0.0149   0.0230   0.0122   0.00    2.4
1874 214175.600        28.3294         0.2669        -0.1257   2  11   0.0415   0.0500   0.0920  -0.0148   0.0229   0.0121   0.00    2.4
1874 214175.800        28.3242         0.2663        -0.1313   2  11   0.0414   0.0499   0.0917  -0.0148   0.0228   0.0120   0.00    2.5
1874 214176.000        28.3189         0.2698        -0.1453   2  11   0.0413   0.0497   0.0914  -0.0147   0.0228   0.0120   0.00    2.5
1874 214176.200        28.3153         0.2703        -0.1446   2  11   0.0412   0.0496   0.0911  -0.0147   0.0227   0.0119   0.00    2.5
1874 214176.400        28.3095         0.2726        -0.1512   2  11   0.0411   0.0495   0.0908  -0.0147   0.0226   0.0118   0.00    2.6
1874 214176.600        28.3081         0.2723        -0.1593   2  11   0.0409   0.0493   0.0906  -0.0146   0.0225   0.0118   0.00    2.6
1874 214176.800        28.3040         0.2790        -0.1547   2  11   0.0408   0.0492   0.0903  -0.0146   0.0224   0.0117   0.00    2.6
1874 214177.000        28.3002         0.2805        -0.1661   2  11   0.0407   0.0490   0.0900  -0.0145   0.0223   0.0116   0.00    2.7
1874 214177.200        28.2963         0.2813        -0.1709   2  11   0.0406   0.0489   0.0898  -0.0145   0.0223   0.0116   0.00    2.7
1874 214177.400        28.2954         0.2848        -0.1722   2  11   0.0405   0.0488   0.0895  -0.0144   0.0222   0.0115   0.00    2.7
1874 214177.600        28.2905         0.2864        -0.1780   2  11   0.0404   0.0486   0.0892  -0.0144   0.0221   0.0114   0.00    2.8
1874 214177.800        28.2887         0.2891        -0.1862   2  11   0.0403   0.0485   0.0890  -0.0143   0.0220   0.0114   0.00    2.8
1874 214178.000        28.2859         0.2903        -0.1856   2  11   0.0402   0.0484   0.0887  -0.0143   0.0219   0.0113   0.00    2.8
1874 214178.200        28.2812         0.2921        -0.1866   2  11   0.0401   0.0482   0.0884  -0.0142   0.0219   0.0112   0.00    2.9
1874 214178.400        28.2786         0.2924        -0.1967   2  11   0.0400   0.0481   0.0882  -0.0142   0.0218   0.0112   0.00    2.9
1874 214178.600        28.2761         0.2950        -0.2017   2  11   0.0399   0.0480   0.0879  -0.0142   0.0217   0.0111   0.00    2.9
1874 214178.800        28.2754         0.2972        -0.2043   2  11   0.0397   0.0478   0.0877  -0.0141   0.0216   0.0110   0.00    2.9
1874 214179.000        28.2703         0.2979        -0.2059   2  11   0.0396   0.0477   0.0874  -0.0141   0.0215   0.0110   0.00    3.0
1874 214179.200        27.9419         0.2252        -1.5506   1  11   0.0054   0.0066   0.0126  -0.0016   0.0035   0.0008   0.00    3.0
1874 214179.400        27.9408         0.2230        -1.5538   1  11   0.0054   0.0066   0.0126  -0.0016   0.0035   0.0008   0.00    3.0
1874 214179.600        27.9403         0.2259        -1.5465   1  11   0.0054   0.0066   0.0126  -0.0016   0.0035   0.0008   0.00    3.1
1874 214179.800        27.9390         0.2240        -1.5459   1  11   0.0054   0.0066   0.0126  -0.0016   0.0035   0.0008   0.00    3.1
1874 214180.000        27.9379         0.2239        -1.5455   1  11   0.0054   0.0066   0.0126  -0.0016   0.0035   0.0008   0.00    3.1
1874 214180.200        27.9372         0.2224        -1.5434   1  11   0.0054   0.0066   0.0126  -0.0016   0.0035   0.0008   0.00    3.1
1874 214180.400        27.9422         0.2245        -1.5540   1  11   0.0054   0.0066   0.0126  -0.0016   0.0035   0.0008   0.00    3.1
1874 214180.600        27.9456         0.2256        -1.5522   1  11   0.0054   0.0066   0.0126  -0.0016   0.0035   0.0008   0.00    3.2
1874 214180.800        27.9450         0.2245        -1.5504   1  11   0.0054   0.0066   0.0126  -0.0016   0.0035   0.0008   0.00    3.2
1874 214181.000        27.9435         0.2274        -1.5559   1  11   0.0054   0.0066   0.0126  -0.0016   0.0035   0.0008   0.00    3.3
1874 214181.200        27.9424         0.2276        -1.5561   1  11   0.0054   0.0066   0.0126  -0.0016   0.0035   0.0008   0.00   43.6
1874 214181.400        27.9419         0.2263        -1.5566   1  11   0.0054   0.0066   0.0126  -0.0016   0.0035   0.0008   0.00   48.2
1874 214181.600        27.9437         0.2264        -1.5515   1  11   0.0054   0.0066   0.0126  -0.0016   0.0035   0.0008   0.00   52.7
1874 214181.800        27.9446         0.2257        -1.5583   1  11   0.0054   0.0066   0.0126  -0.0016   0.0035   0.0008   0.00   57.3
1874 214182.000        27.9414         0.2225        -1.5464   1  11   0.0054   0.0066   0.0126  -0.0016   0.0035   0.0008   0.00   61.2
1874 214182.200        27.9402         0.2266        -1.5426   1  11   0.0054   0.0066   0.0126  -0.0016   0.0035   0.0008   0.00   64.9
1874 214182.400        27.9400         0.2229        -1.5457   1  11   0.0054   0.0066   0.0126  -0.0016   0.0035   0.0008   0.00   68.8
1874 214182.600        27.9391         0.2240        -1.5453   1  11   0.0054   0.0066   0.0126  -0.0016   0.0035   0.0008   0.00   72.4
1874 214182.800        27.9384         0.2240        -1.5551   1  11   0.0054   0.0066   0.0126  -0.0016   0.0035   0.0008   0.00   76.4
1874 214183.000        27.9418         0.2254        -1.5523   1  11   0.0054   0.0066   0.0126  -0.0016   0.0035   0.0008   0.00   80.7
1874 214183.200        27.9410         0.2234        -1.5520   1  11   0.0054   0.0066   0.0126  -0.0016   0.0035   0.0008   0.00   85.2
1874 214183.400        27.9469         0.2239        -1.5575   1  11   0.0054   0.0066   0.0126  -0.0016   0.0035   0.0008   0.00   90.2
1874 214183.600        27.9467         0.2247        -1.5562   1  11   0.0054   0.0066   0.0126  -0.0016   0.0035   0.0008   0.00   95.3
1874 214183.800        27.9455         0.2240        -1.5574   1  11   0.0054   0.0066   0.0126  -0.0016   0.0035   0.0008   0.00  100.1
1874 214184.000        27.9446         0.2239        -1.5537   1  11   0.0054   0.0066   0.0126  -0.0016   0.0035   0.0008   0.00  104.7
1874 214184.200        27.9435         0.2243        -1.5581   1  11   0.0054   0.0066   0.0126  -0.0016   0.0035   0.0008   0.00  110.0
1874 214184.400        27.9448         0.2255        -1.5506   1  11   0.0054   0.0066   0.0126  -0.0016   0.0035   0.0008   0.00  115.1
1874 214184.600        27.9409         0.2244        -1.5560   1  11   0.0054   0.0066   0.0126  -0.0016   0.0035   0.0008   0.00  120.4
1874 214184.800        27.9421         0.2235        -1.5546   1  11   0.0054   0.0066   0.0126  -0.0016   0.0035   0.0008   0.00  125.8
1874 214185.000        27.9432         0.2241        -1.5576   1  11   0.0054   0.0066   0.0126  -0.0016   0.0035   0.0008   0.00  131.1
1874 214185.200        27.9444         0.2230        -1.5510   1  11   0.0054   0.0066   0.0126  -0.0016   0.0035   0.0008   0.00  136.6
1874 214185.400        27.9431         0.2240        -1.5495   1  11   0.0054   0.0066   0.0126  -0.0016   0.0035   0.0008   0.00  142.3
1874 214185.600        27.9442         0.2232        -1.5540   1  11   0.0054   0.0066   0.0126  -0.0016   0.0035   0.0008   0.00  147.7
1874 214185.800        27.9422         0.2265        -1.5521   1  11   0.0054   0.0066   0.0126  -0.0016   0.0035   0.0007   0.00  153.5
1874 214186.000        27.9400         0.2258        -1.5541   1  11   0.0054   0.0066   0.0126  -0.0016   0.0035   0.0007   0.00  159.0
1874 214186.200        27.9414         0.2262        -1.5517   1  11   0.0054   0.0066   0.0126  -0.0016   0.0035   0.0007   0.00  164.8
1874 214186.400        27.9406         0.2248        -1.5508   1  11   0.0054   0.0066   0.0126  -0.0016   0.0035   0.0007   0.00  170.8
1874 214186.600        27.9423         0.2240        -1.5520   1  11   0.0054   0.0066   0.0126  -0.0016   0.0035   0.0007   0.00  176.9
1874 214186.800        27.9434         0.2224        -1.5506   1  11   0.0054   0.0066   0.0126  -0.0016   0.0035   0.0007   0.00  183.0
1874 214187.000        27.9424         0.2225        -1.5522   1  11   0.0054   0.0066   0.0126  -0.0016   0.0035   0.0007   0.00  188.5
1874 214187.200        27.9428         0.2242        -1.5513   1  11   0.0054   0.0066   0.0126  -0.0016   0.0035   0.0007   0.00  194.1
1874 214187.400        27.9417         0.2242        -1.5521   1  11   0.0054   0.0066   0.0126  -0.0016   0.0035   0.0007   0.00  199.5
1874 214187.600        27.9414         0.2251        -1.5498   1  11   0.0054   0.0066   0.0126  -0.0016   0.0035   0.0007   0.00  205.0
1874 214187.800        27.9391         0.2254        -1.5500   1  11   0.0054   0.0066   0.0126  -0.0016   0.0035   0.0007   0.00  211.2
1874 214188.000        27.9415         0.2257        -1.5533   1  11   0.0054   0.0066   0.0126  -0.0016   0.0035   0.0007   0.00  217.2
1874 214188.200        27.9409         0.2245        -1.5553   1  11   0.0054   0.0066   0.0126  -0.0016   0.0035   0.0007   0.00  223.2
1874 214188.400        27.9429         0.2240        -1.5504   1  11   0.0054   0.0066   0.0125  -0.0016   0.0035   0.0007   0.00  229.4
1874 214188.600        27.9444         0.2283        -1.5500   1  11   0.0054   0.0066   0.0125  -0.0016   0.0035   0.0007   0.00  235.6
1874 214188.800        27.9448         0.2243        -1.5500   1  11   0.0054   0.0066   0.0125  -0.0016   0.0035   0.0007   0.00  241.9
1874 214189.000        27.9442         0.2278        -1.5458   1  11   0.0054   0.0066   0.0125  -0.0016   0.0035   0.0007   0.00  248.8
1874 214189.200        27.9434         0.2257        -1.5506   1  11   0.0054   0.0066   0.0125  -0.0016   0.0035   0.0007   0.00  254.4
1874 214189.400        27.9415         0.2266        -1.5446   1  11   0.0054   0.0066   0.0125  -0.0016   0.0035   0.0007   0.00  260.1
1874 214189.600        27.9394         0.2236        -1.5442   1  11   0.0054   0.0066   0.0125  -0.0016   0.0035   0.0007   0.00  264.8
1874 214189.800        27.9394         0.2250        -1.5426   1  11   0.0054   0.0066   0.0125  -0.0016   0.0035   0.0007   0.00  269.1
1874 214190.000        27.9377         0.2228        -1.5398   1  11   0.0054   0.0066   0.0125  -0.0016   0.0035   0.0007   0.00  272.3
1874 214190.200        27.9374         0.2240        -1.5466   1  11   0.0054   0.0066   0.0125  -0.0016   0.0035   0.0007   0.00  275.3
1874 214190.400        27.9378         0.2238        -1.5389   1  11   0.0054   0.0066   0.0125  -0.0016   0.0035   0.0007   0.00  278.6
1874 214190.600        27.9402         0.2251        -1.5543   1  11   0.0054   0.0066   0.0125  -0.0016   0.0035   0.0007   0.00  285.6
1874 214190.800        27.9413         0.2264        -1.5528   1  11   0.0054   0.0066   0.0125  -0.0016   0.0035   0.0007   0.00  292.6
1874 214191.000        27.9413         0.2253        -1.5496   1  11   0.0054   0.0066   0.0125  -0.0016   0.0035   0.0007   0.00  299.0
1874 214191.200        27.9430         0.2243        -1.5512   1  11   0.0054   0.0066   0.0125  -0.0016   0.0035   0.0007   0.00  306.4
1874 214191.400        27.9392         0.2250        -1.5501   1  11   0.0054   0.0066   0.0125  -0.0016   0.0035   0.0007   0.00  313.1
1874 214191.600        27.9417         0.2256        -1.5527   1  11   0.0054   0.0066   0.0125  -0.0016   0.0035   0.0007   0.00  319.9
1874 214191.800        27.9400         0.2245        -1.5504   1  11   0.0054   0.0066   0.0125  -0.0016   0.0035   0.0007   0.00  326.1
1874 214192.000        27.9448         0.2222        -1.5518   1  11   0.0054   0.0066   0.0125  -0.0016   0.0035   0.0007   0.00  334.0
1874 214192.200        27.9448         0.2243        -1.5545   1  11   0.0054   0.0066   0.0125  -0.0016   0.0035   0.0007   0.00  341.9
1874 214192.400        27.9395         0.2270        -1.5477   1  11   0.0054   0.0066   0.0125  -0.0016   0.0035   0.0007   0.00  347.5
1874 214192.600        27.9381         0.2227        -1.5437   1  11   0.0054   0.0066   0.0125  -0.0016   0.0035   0.0007   0.00  352.5
1874 214192.800        27.9361         0.2228        -1.5453   1  11   0.0054   0.0066   0.0125  -0.0016   0.0035   0.0007   0.00  357.4
1874 214193.000        27.9365         0.2223        -1.5509   1  11   0.0054   0.0066   0.0125  -0.0016   0.0035   0.0007   0.00  361.5
1874 214193.200        27.9377         0.2233        -1.5445   1  11   0.0054   0.0066   0.0125  -0.0016   0.0035   0.0007   0.00  366.5
1874 214193.400        27.9406         0.2235        -1.5469   1  11   0.0054   0.0066   0.0125  -0.0016   0.0035   0.0007   0.00  371.1
1874 214193.600        27.9389         0.2218        -1.5519   1  11   0.0054   0.0066   0.0125  -0.0016   0.0035   0.0007   0.00  375.7
1874 214193.800        27.9418         0.2216        -1.5523   1  11   0.0054   0.0066   0.0125  -0.0016   0.0035   0.0007   0.00  381.2
1874 214194.000        27.9419         0.2231        -1.5529   1  11   0.0054   0.0066   0.0125  -0.0016   0.0035   0.0007   0.00  387.7
1874 214194.200        27.9407         0.2230        -1.5508   1  11   0.0054   0.0066   0.0125  -0.0016   0.0035   0.0007   0.00  394.1
1874 214194.400        27.9409         0.2239        -1.5523   1  11   0.0054   0.0066   0.0125  -0.0016   0.0035   0.0007   0.00  400.4
1874 214194.600        27.9424         0.2244        -1.5528   1  11   0.0054   0.0066   0.0125  -0.0016   0.0035   0.0007   0.00  405.7
1874 214194.800        27.9420         0.2216        -1.5532   1  11   0.0054   0.0066   0.0125  -0.0016   0.0035   0.0007   0.00  411.7
1874 214195.000        27.9432         0.2230        -1.5559   1  11   0.0054   0.0066   0.0125  -0.0016   0.0035   0.0007   0.00  417.7
1874 214195.200        27.9433         0.2233        -1.5548   1  11   0.0054   0.0066   0.0125  -0.0016   0.0035   0.0007   0.00  423.6
1874 214195.400        27.9422         0.2244        -1.5505   1  11   0.0054   0.0066   0.0125  -0.0016   0.0035   0.0007   0.00  429.4
1874 214195.600        27.9421         0.2228        -1.5525   1  11   0.0054   0.0066   0.0125  -0.0016   0.0035   0.0007   0.00  435.1
1874 214195.800        27.9429         0.2230        -1.5507   1  11   0.0054   0.0066   0.0125  -0.0016   0.0035   0.0007   0.00  440.4
1874 214196.000        27.9399         0.2225        -1.5548   1  11   0.0054   0.0066   0.0125  -0.0016   0.0035   0.0007   0.00  446.0
1874 214196.200        27.9394         0.2247        -1.5511   1  11   0.0054   0.0066   0.0125  -0.0016   0.0035   0.0007   0.00  451.2
1874 214196.400        27.9417         0.2203        -1.5522   1  11   0.0054   0.0066   0.0125  -0.0016   0.0035   0.0007   0.00  456.2
1874 214196.600        27.9379         0.2199        -1.5511   1  11   0.0054   0.0066   0.0125  -0.0016   0.0035   0.0007   0.00  461.7
1874 214196.800        27.9369         0.2178        -1.5516   1  11   0.0054   0.0066   0.0125  -0.0016   0.0035   0.0007   0.00  466.8
1874 214197.000        27.9358         0.2198        -1.5545   1  11   0.0054   0.0066   0.0125  -0.0016   0.0035   0.0007   0.00  471.9
1874 214197.200        27.9380         0.2199        -1.5489   1  11   0.0054   0.0066   0.0125  -0.0016   0.0035   0.0007   0.00  477.1
1874 214197.400        27.9389         0.2201        -1.5522   1  11   0.0054   0.0066   0.0125  -0.0016   0.0035   0.0007   0.00  481.9
1874 214197.600        27.9402         0.2232        -1.5545   1  11   0.0054   0.0066   0.0125  -0.0016   0.0035   0.0007   0.00  487.5
1874 214197.800        27.9393         0.2232        -1.5565   1  11   0.0054   0.0066   0.0125  -0.0016   0.0035   0.0007   0.00  494.8
1874 214198.000        27.9412         0.2223        -1.5512   1  11   0.0054   0.0066   0.0125  -0.0016   0.0035   0.0007   0.00  500.3
1874 214198.200        27.9412         0.2239        -1.5563   1  11   0.0054   0.0066   0.0125  -0.0016   0.0035   0.0007   0.00  505.8
1874 214198.400        27.9441         0.2207        -1.5579   1  11   0.0054   0.0066   0.0125  -0.0016   0.0035   0.0007   0.00  510.8
1874 214198.600        27.9402         0.2249        -1.5499   1  11   0.0054   0.0066   0.0125  -0.0016   0.0035   0.0007   0.00  516.0
1874 214198.800        27.9419         0.2215        -1.5532   1  11   0.0054   0.0066   0.0125  -0.0016   0.0035   0.0007   0.00  520.7
1874 214199.000        27.9396         0.2219        -1.5561   1  11   0.0054   0.0066   0.0125  -0.0016   0.0035   0.0007   0.00  525.9
1874 214199.200        27.9412         0.2230        -1.5480   1  11   0.0054   0.0066   0.0125  -0.0016   0.0035   0.0007   0.00  530.3
1874 214199.400        27.9423         0.2223        -1.5507   1  11   0.0054   0.0066   0.0125  -0.0016   0.0035   0.0007   0.00  534.7
1874 214199.600        27.9418         0.2235        -1.5527   1  11   0.0054   0.0066   0.0125  -0.0016   0.0035   0.0007   0.00  538.5
1874 214199.800        27.9420         0.2213        -1.5535   1  11   0.0054   0.0066   0.0125  -0.0016   0.0035   0.0007   0.00  542.9
1874 214200.000        27.9409         0.2224        -1.5493   1  11   0.0054   0.0066   0.0125  -0.0016   0.0035   0.0007   0.00  548.1
1874 214200.200        27.9423         0.2239        -1.5519   1  11   0.0054   0.0066   0.0125  -0.0016   0.0035   0.0007   0.00  552.4
1874 214200.400        27.9421         0.2204        -1.5485   1  11   0.0054   0.0066   0.0125  -0.0016   0.0035   0.0007   0.00  557.1
1874 214200.600        27.9418         0.2226        -1.5542   1  11   0.0054   0.0066   0.0125  -0.0016   0.0035   0.0006   0.00  562.9
1874 214200.800        27.9417         0.2203        -1.5570   1  11   0.0054   0.0066   0.0125  -0.0016   0.0035   0.0006   0.00  567.7
1874 214201.000        27.9422         0.2196        -1.5496   1  11   0.0054   0.0066   0.0125  -0.0016   0.0035   0.0006   0.00  573.3
1874 214201.200        27.9414         0.2219        -1.5520   1  11   0.0054   0.0066   0.0125  -0.0016   0.0035   0.0006   0.00  576.2
1874 214201.400        27.9401         0.2205        -1.5506   1  11   0.0054   0.0066   0.0125  -0.0016   0.0035   0.0006   0.00  579.8
1874 214201.600        27.9402         0.2219        -1.5574   1  11   0.0054   0.0066   0.0125  -0.0016   0.0035   0.0006   0.00  585.7
1874 214201.800        27.9398         0.2222        -1.5540   1  11   0.0054   0.0066   0.0125  -0.0016   0.0035   0.0006   0.00  590.2
1874 214202.000        27.9416         0.2235        -1.5555   1  11   0.0054   0.0066   0.0125  -0.0016   0.0035   0.0006   0.00  595.6
1874 214202.200        27.9432         0.2200        -1.5549   1  11   0.0054   0.0066   0.0125  -0.0016   0.0035   0.0006   0.00  600.0
1874 214202.400        27.9391         0.2202        -1.5560   1  11   0.0054   0.0066   0.0125  -0.0016   0.0035   0.0006   0.00  603.7
1874 214202.600        27.9411         0.2228        -1.5595   1  11   0.0054   0.0066   0.0125  -0.0016   0.0035   0.0006   0.00  608.3
1874 214202.800        27.9427         0.2212        -1.5560   1  11   0.0054   0.0066   0.0125  -0.0016   0.0035   0.0006   0.00  613.7
1874 214203.000        27.9410         0.2231        -1.5510   1  11   0.0054   0.0066   0.0125  -0.0016   0.0035   0.0006   0.00  618.7
1874 214203.200        27.9416         0.2177        -1.5561   1  11   0.0054   0.0066   0.0125  -0.0016   0.0035   0.0006   0.00  623.9
1874 214203.400        27.9436         0.2199        -1.5537   1  11   0.0054   0.0066   0.0125  -0.0016   0.0035   0.0006   0.00  628.9
1874 214203.600        27.9393         0.2199        -1.5532   1  11   0.0054   0.0066   0.0125  -0.0016   0.0035   0.0006   0.00  632.5
1874 214203.800        27.9353         0.2182        -1.5559   1  11   0.0054   0.0066   0.0125  -0.0016   0.0035   0.0006   0.00  637.8
1874 214204.000        27.9300         0.2226        -1.5430   1  11   0.0054   0.0066   0.0125  -0.0016   0.0035   0.0006   0.00  642.2
1874 214204.200        27.9335         0.2235        -1.5400   1  11   0.0054   0.0066   0.0125  -0.0016   0.0035   0.0006   0.00  647.8
1874 214204.400        27.9310         0.2224        -1.5447   1  11   0.0054   0.0066   0.0125  -0.0016   0.0035   0.0006   0.00  652.8
1874 214204.600        27.9304         0.2200        -1.5462   1  11   0.0054   0.0066   0.0125  -0.0016   0.0035   0.0006   0.00  655.5
1874 214204.800        27.9326         0.2191        -1.5535   1  11   0.0054   0.0066   0.0125  -0.0016   0.0035   0.0006   0.00  657.6
1874 214205.000        27.9334         0.2104        -1.5614   1  11   0.0054   0.0066   0.0125  -0.0016   0.0035   0.0006   0.00  662.1
1874 214205.200        27.9336         0.2159        -1.5491   1  11   0.0054   0.0066   0.0125  -0.0016   0.0035   0.0006   0.00  669.3
1874 214205.400        27.9340         0.2208        -1.5392   1  11   0.0054   0.0066   0.0125  -0.0016   0.0035   0.0006   0.00  674.2
1874 214205.600        27.9375         0.2214        -1.5415   1  11   0.0054   0.0066   0.0125  -0.0016   0.0035   0.0006   0.00  678.9
1874 214205.800        27.9411         0.2157        -1.5638   1  11   0.0054   0.0066   0.0125  -0.0016   0.0035   0.0006   0.00  682.6
1874 214206.000        27.9360         0.2196        -1.5593   1  11   0.0054   0.0066   0.0125  -0.0016   0.0035   0.0006   0.00  687.1
1874 214206.200        27.9505         0.2267        -1.5366   1  11   0.0054   0.0066   0.0125  -0.0016   0.0035   0.0006   0.00  690.0
1874 214206.400        27.9453         0.2290        -1.5545   1  11   0.0054   0.0066   0.0125  -0.0016   0.0035   0.0006   0.00  692.1
1874 214206.600        27.9368         0.2184        -1.5594   1  11   0.0054   0.0066   0.0125  -0.0016   0.0035   0.0006   0.00  697.7
1874 214206.800        27.9361         0.2309        -1.5391   1  11   0.0054   0.0066   0.0125  -0.0016   0.0035   0.0006   0.00  704.1
1874 214207.000        27.9427         0.2279        -1.5549   1  11   0.0054   0.0066   0.0125  -0.0016   0.0035   0.0006   0.00  707.5
1874 214207.200        27.9460         0.2257        -1.5537   1  11   0.0054   0.0066   0.0125  -0.0016   0.0035   0.0006   0.00  710.9
1874 214207.400        27.9455         0.2242        -1.5494   1  11   0.0054   0.0066   0.0125  -0.0016   0.0035   0.0006   0.00  716.8
1874 214207.600        27.9459         0.2216        -1.5492   1  11   0.0054   0.0066   0.0125  -0.0016   0.0035   0.0006   0.00  723.4
1874 214207.800        27.9447         0.2265        -1.5502   1  11   0.0054   0.0066   0.0125  -0.0016   0.0035   0.0006   0.00  727.6
1874 214208.000        27.9392         0.2270        -1.5509   1  11   0.0054   0.0066   0.0125  -0.0016   0.0035   0.0006   0.00  731.1
1874 214208.200        27.9417         0.2289        -1.5477   1  11   0.0054   0.0066   0.0125  -0.0016   0.0035   0.0006   0.00  735.0
1874 214208.400        27.9410         0.2277        -1.5465   1  11   0.0054   0.0066   0.0125  -0.0016   0.0035   0.0006   0.00  739.3
1874 214208.600        27.9402         0.2281        -1.5455   1  11   0.0054   0.0066   0.0125  -0.0016   0.0035   0.0006   0.00  744.5
1874 214208.800        27.9411         0.2272        -1.5535   1  11   0.0054   0.0066   0.0125  -0.0016   0.0035   0.0006   0.00  748.2
1874 214209.000        27.9415         0.2269        -1.5510   1  11   0.0054   0.0066   0.0125  -0.0016   0.0035   0.0006   0.00  751.5
1874 214209.200        27.9393         0.2309        -1.5443   1  11   0.0054   0.0066   0.0125  -0.0016   0.0035   0.0006   0.00  755.6
1874 214209.400        27.9442         0.2258        -1.5420   1  11   0.0054   0.0066   0.0125  -0.0016   0.0035   0.0006   0.00  764.1
1874 214209.600        27.9440         0.2214        -1.5499   1  11   0.0054   0.0066   0.0125  -0.0016   0.0035   0.0006   0.00  767.4
1874 214209.800        27.9418         0.2270        -1.5404   1  11   0.0054   0.0066   0.0125  -0.0016   0.0035   0.0006   0.00  770.5
1874 214210.000        27.9442         0.2279        -1.5484   1  11   0.0054   0.0066   0.0125  -0.0016   0.0035   0.0006   0.00  775.2
1874 214210.200        27.9427         0.2277        -1.5457   1  11   0.0054   0.0066   0.0125  -0.0016   0.0035   0.0006   0.00  781.4
1874 214210.400        27.9379         0.2280        -1.5447   1  11   0.0054   0.0066   0.0125  -0.0016   0.0035   0.0006   0.00  792.0
1874 214210.600        27.9415         0.2242        -1.5446   1  11   0.0054   0.0066   0.0125  -0.0016   0.0035   0.0006   0.00  802.1
1874 214210.800        27.9362         0.2231        -1.5502   1  11   0.0054   0.0066   0.0125  -0.0016   0.0035   0.0006   0.00  811.5
1874 214211.000        27.9359         0.2296        -1.5475   1  11   0.0054   0.0066   0.0125  -0.0016   0.0035   0.0006   0.00  822.3
1874 214211.200        27.9287         0.2330        -1.5328   1  11   0.0054   0.0066   0.0125  -0.0016   0.0035   0.0006   0.00  832.4
1874 214211.400        27.9526         0.2425        -1.4948   1  11   0.0054   0.0066   0.0125  -0.0016   0.0035   0.0006   0.00  841.1
1874 214211.600        27.9695         0.2632        -1.3554   1  11   0.0054   0.0066   0.0125  -0.0016   0.0035   0.0006   0.00  849.5
1874 214211.800        28.0486         0.2850        -1.1158   1  11   0.0054   0.0066   0.0125  -0.0016   0.0035   0.0006   0.00  858.8
1874 214212.000        28.1758         0.4107        -0.8752   1  11   0.0054   0.0066   0.0125  -0.0016   0.0035   0.0006   0.00  866.9
1874 214212.200        28.3104         0.6216        -0.7053   1  10   0.0054   0.0075   0.0132  -0.0020  -0.0015   0.0013   0.00  885.8
1874 214212.400        28.4151         0.8671        -0.5235   1  10   0.0056   0.0089   0.0147   0.0015  -0.0058  -0.0026   0.00  895.1
1874 214212.600        28.4898         1.1067        -0.4414   1  10   0.0056   0.0081   0.0140   0.0013  -0.0041  -0.0025   0.00  903.7
1874 214212.800        28.5543         1.3009        -0.3792   1  11   0.0056   0.0078   0.0137   0.0012  -0.0033  -0.0024   0.00  905.1
1874 214213.000        28.6581         1.4494        -0.3551   1  10   0.0055   0.0082   0.0139  -0.0010  -0.0041  -0.0015   0.00  908.4
1874 214213.200        28.7641         1.5723        -0.3341   1  10   0.0055   0.0080   0.0137  -0.0014  -0.0035  -0.0010   0.00  912.8
1874 214213.400        28.8555         1.6542        -0.3185   1  10   0.0055   0.0078   0.0135  -0.0016  -0.0031  -0.0006   0.00  916.1
1874 214213.600        28.9623         1.7547        -0.3141   1  10   0.0055   0.0078   0.0135  -0.0017  -0.0029   0.0003   0.00  919.7
1874 214213.800        29.0779         1.8453        -0.3321   1  11   0.0055   0.0077   0.0134  -0.0017  -0.0027   0.0006   0.00  929.1
1874 214214.000        29.1644         1.8782        -0.3214   1  11   0.0055   0.0073   0.0131  -0.0016   0.0007  -0.0004   0.00  935.5
1874 214214.200        29.2633         1.8497        -0.3158   1  11   0.0055   0.0071   0.0130  -0.0015   0.0019  -0.0005   0.00  948.9
1874 214214.400        29.3248         1.8015        -0.2941   1  11   0.0055   0.0070   0.0129  -0.0015   0.0022  -0.0005   0.00  967.1
1874 214214.600        29.3625         1.7760        -0.2568   1  10   0.0056   0.0075   0.0135   0.0011  -0.0024  -0.0024   0.00  978.5
1874 214214.800        29.4165         1.7538        -0.2860   1  10   0.0056   0.0074   0.0135   0.0011  -0.0022  -0.0024   0.00  997.1
1874 214215.000        29.4870         1.7350        -0.3306   1  11   0.0056   0.0074   0.0134   0.0011  -0.0020  -0.0024   0.00  999.9
1874 214215.200        29.5504         1.6839        -0.3795   1  11   0.0055   0.0071   0.0131  -0.0008   0.0015  -0.0017   0.00  999.9
1874 214215.400        29.5650         1.5861        -0.3883   1  11   0.0055   0.0070   0.0129  -0.0011   0.0021  -0.0013   0.00  999.9
1874 214215.600        29.5672         1.4506        -0.3640   1  11   0.0055   0.0069   0.0129  -0.0013   0.0024  -0.0011   0.00  999.9
1874 214215.800        29.5715         1.3579        -0.3812   1  11   0.0055   0.0069   0.0128  -0.0013   0.0026  -0.0010   0.00  999.9
1874 214216.000        29.5679         1.2708        -0.3944   1  11   0.0055   0.0068   0.0128  -0.0014   0.0027  -0.0009   0.00  999.9
1874 214216.200        29.5849         1.1951        -0.4244   1  11   0.0055   0.0068   0.0128  -0.0014   0.0028  -0.0008   0.00  999.9
1874 214216.400        29.6413         1.1179        -0.4857   1  11   0.0055   0.0068   0.0127  -0.0014   0.0029  -0.0007   0.00  999.9
1874 214216.600        29.6739         1.0757        -0.5792   1  11   0.0055   0.0068   0.0127  -0.0015   0.0029  -0.0007   0.00  999.9
1874 214216.800        29.7035         1.0220        -0.6349   1  11   0.0054   0.0067   0.0127  -0.0015   0.0030  -0.0006   0.00  999.9
1874 214217.000        29.7071         1.0029        -0.7056   1  11   0.0054   0.0067   0.0127  -0.0015   0.0030  -0.0006   0.00  999.9
1874 214217.200        29.7242         0.9855        -0.7597   1  11   0.0054   0.0067   0.0127  -0.0015   0.0030  -0.0005   0.00  999.9
1874 214217.400        29.7554         0.9691        -0.8019   1  11   0.0054   0.0067   0.0127  -0.0015   0.0031  -0.0005   0.00  999.9
1874 214217.600        29.7597         0.9654        -0.8478   1  11   0.0054   0.0067   0.0127  -0.0015   0.0031  -0.0005   0.00  999.9
1874 214217.800        29.7675         0.9530        -0.8980   1  11   0.0054   0.0067   0.0127  -0.0015   0.0031  -0.0004   0.00  999.9
1874 214218.000        29.7869         0.9345        -0.8941   1  11   0.0054   0.0067   0.0127  -0.0015   0.0031  -0.0004   0.00  999.9
1874 214218.200        29.7882         0.9270        -0.9354   1  11   0.0054   0.0067   0.0127  -0.0015   0.0031  -0.0004   0.00  999.9
1874 214218.400        29.7680         0.9424        -0.9645   1  11   0.0054   0.0067   0.0126  -0.0015   0.0032  -0.0003   0.00  999.9
1874 214218.600        29.7300         0.9563        -1.0008   1  11   0.0054   0.0067   0.0126  -0.0016   0.0032  -0.0003   0.00  999.9
1874 214218.800        29.7124         0.9618        -0.9951   1  11   0.0054   0.0067   0.0126  -0.0016   0.0032  -0.0003   0.00  999.9
1874 214219.000        29.6887         0.9833        -1.0018   1  11   0.0054   0.0067   0.0126  -0.0016   0.0032  -0.0003   0.00  999.9
1874 214219.200        29.6762         0.9860        -0.9872   1  10   0.0055   0.0076   0.0132  -0.0019  -0.0019   0.0012   0.00  999.9
1874 214219.400        29.6778         1.0231        -1.0090   1  11   0.0055   0.0076   0.0132  -0.0019  -0.0019   0.0012   0.00  999.9
1874 214219.600        29.6800         1.0611        -1.0242   1  11   0.0054   0.0071   0.0129  -0.0017   0.0019   0.0008   0.00  999.9
1874 214219.800        29.6644         1.0889        -1.0218   1  11   0.0054   0.0069   0.0128  -0.0017   0.0025   0.0006   0.00  999.9
1874 214220.000        29.6539         1.1163        -1.0233   1  11   0.0054   0.0069   0.0128  -0.0017   0.0027   0.0005   0.00  999.9
1874 214220.200        29.6497         1.1189        -1.0285   1  11   0.0054   0.0068   0.0127  -0.0016   0.0028   0.0005   0.00  999.9
1874 214220.400        29.6453         1.1192        -1.0360   1  11   0.0054   0.0068   0.0127  -0.0016   0.0029   0.0004   0.00  999.9
1874 214220.600        29.6516         1.1375        -1.0483   1  11   0.0054   0.0068   0.0127  -0.0016   0.0030   0.0004   0.00  999.9
1874 214220.800        29.6421         1.1241        -1.0211   1  10   0.0054   0.0075   0.0132  -0.0019  -0.0018   0.0012   0.00  999.9
1874 214221.000        29.6471         1.1229        -1.0149   1  10   0.0054   0.0075   0.0132  -0.0019  -0.0018   0.0012   0.00  999.9
1874 214221.200        29.6457         1.1156        -1.0311   1  10   0.0054   0.0075   0.0132  -0.0019  -0.0018   0.0012   0.00  999.9
1874 214221.400        29.6487         1.1277        -1.0258   1  10   0.0054   0.0075   0.0132  -0.0019  -0.0018   0.0012   0.00  999.9
1874 214221.600        29.6484         1.1239        -1.0283   1  10   0.0054   0.0075   0.0132  -0.0019  -0.0018   0.0012   0.00  999.9
1874 214221.800        29.6483         1.1220        -1.0364   1  10   0.0054   0.0075   0.0132  -0.0019  -0.0018   0.0012   0.00  999.9
1874 214222.000        29.6493         1.1227        -1.0224   1  10   0.0054   0.0075   0.0132  -0.0020  -0.0018   0.0012   0.00  999.9
1874 214222.200        29.6458         1.1191        -1.0179   1  10   0.0054   0.0075   0.0132  -0.0020  -0.0018   0.0012   0.00  999.9
1874 214222.400        29.6487         1.1188        -1.0223   1  11   0.0054   0.0075   0.0132  -0.0020  -0.0018   0.0012   0.00  999.9
1874 214222.600        29.6390         1.1240        -1.0170   1  11   0.0054   0.0071   0.0129  -0.0018   0.0020   0.0009   0.00  999.9
1874 214222.800        29.6449         1.1173        -1.0274   1  11   0.0054   0.0069   0.0128  -0.0017   0.0025   0.0007   0.00  999.9
1874 214223.000        29.6458         1.1129        -1.0195   1  11   0.0054   0.0068   0.0127  -0.0017   0.0028   0.0006   0.00  999.9
1874 214223.200        29.6426         1.1173        -1.0151   1  11   0.0054   0.0068   0.0127  -0.0017   0.0029   0.0005   0.00  999.9
1874 214223.400        29.6493         1.1139        -1.0296   1  11   0.0054   0.0068   0.0127  -0.0017   0.0030   0.0005   0.00  999.9
1874 214223.600        29.6423         1.1191        -1.0183   1  11   0.0054   0.0067   0.0127  -0.0016   0.0030   0.0005   0.00  999.9
1874 214223.800        29.6496         1.1267        -1.0210   1  11   0.0054   0.0067   0.0127  -0.0016   0.0031   0.0004   0.00  999.9
1874 214224.000        29.6415         1.1207        -1.0220   1  11   0.0054   0.0067   0.0126  -0.0016   0.0031   0.0004   0.00  999.9
1874 214224.200        29.6438         1.1205        -1.0192   2  11   0.0056   0.0073   0.0134   0.0011  -0.0015  -0.0024   0.00    1.5
1874 214224.400        29.6433         1.1192        -1.0154   2  11   0.0055   0.0070   0.0130  -0.0008   0.0019  -0.0017   0.00    1.9
1874 214224.600        29.6405         1.1109        -1.0185   2  11   0.0055   0.0069   0.0129  -0.0011   0.0024  -0.0013   0.00    2.3
1874 214224.800        29.6499         1.1190        -1.0232   2  11   0.0055   0.0069   0.0128  -0.0013   0.0026  -0.0012   0.00    2.8
